{"type":"FeatureCollection","features":[{"type":"Feature","properties":{"OBJECTID":2071,"NAME":"Alice V. Hedden Elementary School","ADDRESS":"11313 8TH ST E","CITY":"EDGEWOOD","ZIP":"98372","DISTRICT":"FIFE","DIST_NO":"417","TYPE":"ELEM","PHONE":"(253) 517-1500","WEBSITE":"https://hedden.fifeschools.com/","PRS_ID":315,"GRADE":"K-6","X_COORD":1198539.56739999,"Y_COORD":704274.7564},"geometry":{"type":"Point","coordinates":[-122.2793867960867,47.25088835040472]}},{"type":"Feature","properties":{"OBJECTID":2072,"NAME":"All Saints School - Puyallup","ADDRESS":"504 2ND ST SW","CITY":"PUYALLUP","ZIP":"98371","DISTRICT":"NOT APPLICABLE","DIST_NO":" ","TYPE":"PRIVATE","PHONE":"(253) 845-5025","WEBSITE":"https://www.allsaintspuyallup.org/","PRS_ID":70,"GRADE":"K-6","X_COORD":1193968.5257,"Y_COORD":681321.9349},"geometry":{"type":"Point","coordinates":[-122.29568367785724,47.187690951896016]}},{"type":"Feature","properties":{"OBJECTID":2073,"NAME":"Anderson Island Elementary School","ADDRESS":"13005 CAMUS RD","CITY":"ANDERSON ISLAND","ZIP":"98303","DISTRICT":"STEILACOOM","DIST_NO":"001","TYPE":"ELEM","PHONE":"(253) 884-4901","WEBSITE":"https://www.steilacoom.k12.wa.us/Domain/13","PRS_ID":227,"GRADE":"K-6","X_COORD":1089991.0785,"Y_COORD":675134.0097},"geometry":{"type":"Point","coordinates":[-122.71300020848088,47.16348732281026]}},{"type":"Feature","properties":{"OBJECTID":2074,"NAME":"Annie Wright School","ADDRESS":"827 N TACOMA AVE","CITY":"TACOMA","ZIP":"98403","DISTRICT":"NOT APPLICABLE","DIST_NO":" ","TYPE":"PRIVATE","PHONE":"(253) 272-2216","WEBSITE":"https://www.aw.org/page","PRS_ID":71,"GRADE":"K-12","X_COORD":1154031.8389,"Y_COORD":712176.26350001},"geometry":{"type":"Point","coordinates":[-122.45933405479926,47.26965376417211]}},{"type":"Feature","properties":{"OBJECTID":2075,"NAME":"Arlington Elementary School","ADDRESS":"7202 S PINE ST","CITY":"TACOMA","ZIP":"98409","DISTRICT":"TACOMA","DIST_NO":"010","TYPE":"ELEM","PHONE":"(253) 571-3200","WEBSITE":"https://www.tacomaschools.org/arlington/Pages/default.aspx","PRS_ID":145,"GRADE":"K-5","X_COORD":1149492.2288,"Y_COORD":683621.022},"geometry":{"type":"Point","coordinates":[-122.47473435731693,47.19107840104641]}},{"type":"Feature","properties":{"OBJECTID":2076,"NAME":"Artondale Elementary School","ADDRESS":"6219 40TH ST NW","CITY":"GIG HARBOR","ZIP":"98335","DISTRICT":"PENINSULA","DIST_NO":"401","TYPE":"ELEM","PHONE":"(253) 530-1100","WEBSITE":"https://psd401.net/aes/","PRS_ID":57,"GRADE":"K-6","X_COORD":1113868.95100001,"Y_COORD":722293.17910001},"geometry":{"type":"Point","coordinates":[-122.62214586769139,47.29453275806529]}},{"type":"Feature","properties":{"OBJECTID":2077,"NAME":"Aylen Junior High School","ADDRESS":"101 15TH ST SW","CITY":"PUYALLUP","ZIP":"98371","DISTRICT":"PUYALLUP","DIST_NO":"003","TYPE":"JRHIGH","PHONE":"(253) 841-8723","WEBSITE":"https://ajh.puyallup.k12.wa.us/","PRS_ID":127,"GRADE":"7-9","X_COORD":1189664.314,"Y_COORD":683138.9069},"geometry":{"type":"Point","coordinates":[-122.313157781285,47.19240133878675]}},{"type":"Feature","properties":{"OBJECTID":2078,"NAME":"Baker Middle School","ADDRESS":"8001 S J ST","CITY":"TACOMA","ZIP":"98408","DISTRICT":"TACOMA","DIST_NO":"010","TYPE":"MID","PHONE":"(253) 571-5000","WEBSITE":"https://www.tacomaschools.org/baker/Pages/default.aspx","PRS_ID":190,"GRADE":"6-8","X_COORD":1156490.10079999,"Y_COORD":680437.06739999},"geometry":{"type":"Point","coordinates":[-122.44628110000038,47.182828401802965]}},{"type":"Feature","properties":{"OBJECTID":2079,"NAME":"Ballou Junior High School","ADDRESS":"9916 136TH ST E","CITY":"PUYALLUP","ZIP":"98373","DISTRICT":"PUYALLUP","DIST_NO":"003","TYPE":"JRHIGH","PHONE":"(253) 841-8725","WEBSITE":"https://bjh.puyallup.k12.wa.us/","PRS_ID":128,"GRADE":"7-9","X_COORD":1193120.859,"Y_COORD":660696.0561},"geometry":{"type":"Point","coordinates":[-122.29720202350049,47.131101662550954]}},{"type":"Feature","properties":{"OBJECTID":2080,"NAME":"Bates Technical College - Central Campus","ADDRESS":"2320 S 19TH ST","CITY":"TACOMA","ZIP":"98405","DISTRICT":"NOT APPLICABLE","DIST_NO":" ","TYPE":"TECHNICAL","PHONE":"(253) 680-7603","WEBSITE":"https://batestech.edu/","PRS_ID":342,"GRADE":"Higher Education","X_COORD":1151634.21600001,"Y_COORD":702078.521},"geometry":{"type":"Point","coordinates":[-122.46797385869884,47.24181418944803]}},{"type":"Feature","properties":{"OBJECTID":2081,"NAME":"Bates Technical College - Downtown Campus","ADDRESS":"1101 S YAKIMA AVE","CITY":"TACOMA","ZIP":"98405","DISTRICT":"NOT APPLICABLE","DIST_NO":" ","TYPE":"TECHNICAL","PHONE":"(253) 680-7000","WEBSITE":"https://batestech.edu/","PRS_ID":241,"GRADE":"Higher Education","X_COORD":1157081.4561,"Y_COORD":705479.4874},"geometry":{"type":"Point","coordinates":[-122.446388538304,47.25150616061916]}},{"type":"Feature","properties":{"OBJECTID":2082,"NAME":"Bates Technical College - South Campus","ADDRESS":"2201 S 78TH ST","CITY":"TACOMA","ZIP":"98409","DISTRICT":"NOT APPLICABLE","DIST_NO":" ","TYPE":"TECHNICAL","PHONE":"(253) 680-7400","WEBSITE":"https://batestech.edu/","PRS_ID":253,"GRADE":"Higher Education","X_COORD":1151510.8788,"Y_COORD":682400.9323},"geometry":{"type":"Point","coordinates":[-122.4664954159418,47.18787255636062]}},{"type":"Feature","properties":{"OBJECTID":2083,"NAME":"Beachwood Elementary School","ADDRESS":"8890 CONCORD AVE","CITY":"JBLM","ZIP":"98433","DISTRICT":"CLOVER PARK","DIST_NO":"400","TYPE":"ELEM","PHONE":"(253) 583-5260","WEBSITE":"https://beachwood.cloverpark.k12.wa.us/","PRS_ID":219,"GRADE":"K-6","X_COORD":1120804.6517,"Y_COORD":658437.1649},"geometry":{"type":"Point","coordinates":[-122.58739692787512,47.12002819903755]}},{"type":"Feature","properties":{"OBJECTID":2084,"NAME":"Bellarmine Preparatory School","ADDRESS":"2300 S WASHINGTON ST","CITY":"TACOMA","ZIP":"98405","DISTRICT":"NOT APPLICABLE","DIST_NO":" ","TYPE":"PRIVATE","PHONE":"(253) 752-7701","WEBSITE":"http://www.bellarmineprep.org","PRS_ID":72,"GRADE":"9-12","X_COORD":1147017.6186,"Y_COORD":700555.5756},"geometry":{"type":"Point","coordinates":[-122.48639935175919,47.23732284315257]}},{"type":"Feature","properties":{"OBJECTID":2085,"NAME":"Bethel Acceleraton Academy","ADDRESS":"16218 PACIFIC AVE S","CITY":"SPANAWAY","ZIP":"98387","DISTRICT":"BETHEL","DIST_NO":"403","TYPE":"OTHER","PHONE":"(253) 267-1045","WEBSITE":"https://www.accelerationacademy.org/bethel/","PRS_ID":433,"GRADE":"9-12","X_COORD":1158566.3083,"Y_COORD":653450.1278},"geometry":{"type":"Point","coordinates":[-122.43527179053946,47.108999029114976]}},{"type":"Feature","properties":{"OBJECTID":2086,"NAME":"Bethel Baptist Christian School","ADDRESS":"524 176TH ST E","CITY":"SPANAWAY","ZIP":"98387","DISTRICT":"NOT APPLICABLE","DIST_NO":" ","TYPE":"PRIVATE","PHONE":"(253) 537-1749","WEBSITE":"http://www.bbcsknights.org/","PRS_ID":434,"GRADE":"K-6","X_COORD":1161195.1408,"Y_COORD":648218.10430001},"geometry":{"type":"Point","coordinates":[-122.42420519749889,47.0948344541041]}},{"type":"Feature","properties":{"OBJECTID":2087,"NAME":"Bethel Elementary Learning Academy","ADDRESS":"16117 CANYON RD E","CITY":"PUYALLUP","ZIP":"98375","DISTRICT":"BETHEL","DIST_NO":"403","TYPE":"OTHER","PHONE":"(253) 683-5953","WEBSITE":"https://www.bethelsd.org/Domain/3386","PRS_ID":430,"GRADE":"K-5","X_COORD":1178283.61920001,"Y_COORD":653008.66140001},"geometry":{"type":"Point","coordinates":[-122.35606863080544,47.10908810299876]}},{"type":"Feature","properties":{"OBJECTID":2088,"NAME":"Bethel High School","ADDRESS":"22215 38TH AVE E","CITY":"SPANAWAY","ZIP":"98387","DISTRICT":"BETHEL","DIST_NO":"403","TYPE":"HIGH","PHONE":"(253) 683-7000","WEBSITE":"https://www.bethelsd.org/bhs","PRS_ID":10,"GRADE":"9-12","X_COORD":1172482.63070001,"Y_COORD":633657.6082},"geometry":{"type":"Point","coordinates":[-122.3775088145305,47.05566940550942]}},{"type":"Feature","properties":{"OBJECTID":2089,"NAME":"Bethel Middle School","ADDRESS":"22001 38TH AVE E","CITY":"SPANAWAY","ZIP":"98387","DISTRICT":"BETHEL","DIST_NO":"403","TYPE":"MID","PHONE":"(253) 683-7200","WEBSITE":"https://www.bethelsd.org/bms","PRS_ID":13,"GRADE":"7-9","X_COORD":1172554.3374,"Y_COORD":634716.264},"geometry":{"type":"Point","coordinates":[-122.37732229088446,47.05857593346735]}},{"type":"Feature","properties":{"OBJECTID":2090,"NAME":"Birney Elementary School","ADDRESS":"1202 S 76TH ST","CITY":"TACOMA","ZIP":"98408","DISTRICT":"TACOMA","DIST_NO":"010","TYPE":"ELEM","PHONE":"(253) 571-4600","WEBSITE":"https://www.tacomaschools.org/birney/Pages/default.aspx","PRS_ID":146,"GRADE":"K-5","X_COORD":1155302.3119,"Y_COORD":682110.7885},"geometry":{"type":"Point","coordinates":[-122.4512227517971,47.187335436475564]}},{"type":"Feature","properties":{"OBJECTID":2091,"NAME":"Blix Elementary School","ADDRESS":"1302 E 38TH ST","CITY":"TACOMA","ZIP":"98404","DISTRICT":"TACOMA","DIST_NO":"010","TYPE":"ELEM","PHONE":"(253) 571-7400","WEBSITE":"https://www.tacomaschools.org/blix/Pages/default.aspx","PRS_ID":323,"GRADE":"K-5","X_COORD":1165283.5475,"Y_COORD":694566.3712},"geometry":{"type":"Point","coordinates":[-122.41230656380492,47.222144894171635]}},{"type":"Feature","properties":{"OBJECTID":2092,"NAME":"Bonney Lake Elementary School","ADDRESS":"18715 80TH ST E","CITY":"BONNEY LAKE","ZIP":"98391","DISTRICT":"SUMNER","DIST_NO":"320","TYPE":"ELEM","PHONE":"(253) 891-4450","WEBSITE":"https://www.sumnersd.org/ble","PRS_ID":135,"GRADE":"K-6","X_COORD":1223259.84450001,"Y_COORD":679325.4965},"geometry":{"type":"Point","coordinates":[-122.17773545741346,47.183986686515524]}},{"type":"Feature","properties":{"OBJECTID":2093,"NAME":"Bonney Lake High School","ADDRESS":"10920 199TH AVE CT E","CITY":"BONNEY LAKE","ZIP":"98391","DISTRICT":"SUMNER","DIST_NO":"320","TYPE":"HIGH","PHONE":"(253) 891-5700","WEBSITE":"https://www.sumnersd.org/blhs","PRS_ID":331,"GRADE":"9-12","X_COORD":1225530.713,"Y_COORD":670240.67200001},"geometry":{"type":"Point","coordinates":[-122.16783266672265,47.159216096947524]}},{"type":"Feature","properties":{"OBJECTID":2094,"NAME":"Boze Elementary School","ADDRESS":"1140 E 65TH ST","CITY":"TACOMA","ZIP":"98404","DISTRICT":"TACOMA","DIST_NO":"010","TYPE":"ELEM","PHONE":"(253) 571-4688","WEBSITE":"https://www.tacomaschools.org/boze/Pages/default.aspx","PRS_ID":147,"GRADE":"K-5","X_COORD":1164574.70640001,"Y_COORD":685471.10619999},"geometry":{"type":"Point","coordinates":[-122.41427014243277,47.19716858818794]}},{"type":"Feature","properties":{"OBJECTID":2095,"NAME":"Brookdale Elementary School","ADDRESS":"611 132ND ST S","CITY":"TACOMA","ZIP":"98444","DISTRICT":"FRANKLIN PIERCE","DIST_NO":"402","TYPE":"ELEM","PHONE":"(253) 298-3100","WEBSITE":"https://brookdale.fpschools.org/","PRS_ID":44,"GRADE":"K-6","X_COORD":1157321.82889999,"Y_COORD":664039.06119999},"geometry":{"type":"Point","coordinates":[-122.44131452373898,47.13793900560398]}},{"type":"Feature","properties":{"OBJECTID":2096,"NAME":"Brouillet Elementary School","ADDRESS":"17207 94TH AVE E","CITY":"PUYALLUP","ZIP":"98375","DISTRICT":"PUYALLUP","DIST_NO":"003","TYPE":"ELEM","PHONE":"(253) 841-8670","WEBSITE":"https://bro.puyallup.k12.wa.us/","PRS_ID":105,"GRADE":"K-6","X_COORD":1191415.3971,"Y_COORD":649336.69050001},"geometry":{"type":"Point","coordinates":[-122.30300895521043,47.099858042103406]}},{"type":"Feature","properties":{"OBJECTID":2097,"NAME":"Browns Point Elementary School","ADDRESS":"1526 51ST ST NE","CITY":"TACOMA","ZIP":"98422","DISTRICT":"TACOMA","DIST_NO":"010","TYPE":"ELEM","PHONE":"(253) 571-7600","WEBSITE":"https://www.tacomaschools.org/bp/Pages/default.aspx","PRS_ID":148,"GRADE":"K-5","X_COORD":1162775.1556,"Y_COORD":723763.1332},"geometry":{"type":"Point","coordinates":[-122.4252659871742,47.30200117357873]}},{"type":"Feature","properties":{"OBJECTID":2098,"NAME":"Bryant Montessori School","ADDRESS":"717 S GRANT AVE","CITY":"TACOMA","ZIP":"98405","DISTRICT":"TACOMA","DIST_NO":"010","TYPE":"ELEM","PHONE":"(253) 571-2800","WEBSITE":"https://www.tacomaschools.org/bryant/Pages/default.aspx","PRS_ID":149,"GRADE":"K-8","X_COORD":1153617.9689,"Y_COORD":706797.56},"geometry":{"type":"Point","coordinates":[-122.46046216037612,47.25488361362736]}},{"type":"Feature","properties":{"OBJECTID":2099,"NAME":"Camas Prairie Elementary School","ADDRESS":"320 176TH ST E","CITY":"SPANAWAY","ZIP":"98387","DISTRICT":"BETHEL","DIST_NO":"403","TYPE":"ELEM","PHONE":"(253) 683-7400","WEBSITE":"https://www.bethelsd.org/cpes","PRS_ID":1,"GRADE":"K-6","X_COORD":1160398.449,"Y_COORD":648760.0702},"geometry":{"type":"Point","coordinates":[-122.42745602687157,47.09626665121697]}},{"type":"Feature","properties":{"OBJECTID":2100,"NAME":"Carbonado School","ADDRESS":"427 4TH ST","CITY":"CARBONADO","ZIP":"98323","DISTRICT":"CARBONADO","DIST_NO":"019","TYPE":"ELEM","PHONE":"(360) 829-0121","WEBSITE":"http://www.carbonado.k12.wa.us/","PRS_ID":229,"GRADE":"K-8","X_COORD":1253249.8564,"Y_COORD":641143.4034},"geometry":{"type":"Point","coordinates":[-122.05412782048248,47.08100628404969]}},{"type":"Feature","properties":{"OBJECTID":2101,"NAME":"Carson Elementary School","ADDRESS":"8615 184TH ST E","CITY":"PUYALLUP","ZIP":"98375","DISTRICT":"PUYALLUP","DIST_NO":"003","TYPE":"ELEM","PHONE":"(253) 840-8808","WEBSITE":"https://car.puyallup.k12.wa.us/","PRS_ID":367,"GRADE":"K-6","X_COORD":1188835.8994,"Y_COORD":645838.8133},"geometry":{"type":"Point","coordinates":[-122.31304074163408,47.090107939073505]}},{"type":"Feature","properties":{"OBJECTID":2102,"NAME":"Carter Lake Elementary School","ADDRESS":"3420 LINCOLN BLVD SW","CITY":"JBLM","ZIP":"98433","DISTRICT":"CLOVER PARK","DIST_NO":"400","TYPE":"ELEM","PHONE":"(253) 583-5210","WEBSITE":"https://carterlake.cloverpark.k12.wa.us/","PRS_ID":221,"GRADE":"K-6","X_COORD":1137180.551,"Y_COORD":660998.3223},"geometry":{"type":"Point","coordinates":[-122.52190426049143,47.128217399385925]}},{"type":"Feature","properties":{"OBJECTID":2103,"NAME":"Cascade Christian Jr High and High School","ADDRESS":"811 21ST ST SE","CITY":"PUYALLUP","ZIP":"98372","DISTRICT":"NOT APPLICABLE","DIST_NO":" ","TYPE":"PRIVATE","PHONE":"(253) 445-9706","WEBSITE":"http://www.cascadechristian.org/schools/HighSchoolacademics.cfm","PRS_ID":289,"GRADE":"6-12","X_COORD":1201837.91580001,"Y_COORD":679885.16329999},"geometry":{"type":"Point","coordinates":[-122.26391320502849,47.18423952008093]}},{"type":"Feature","properties":{"OBJECTID":2104,"NAME":"Cascade Christian School - Frederickson Elementary","ADDRESS":"3425 176TH ST E","CITY":"TACOMA","ZIP":"98446","DISTRICT":"NOT APPLICABLE","DIST_NO":" ","TYPE":"PRIVATE","PHONE":"(253) 537-9339","WEBSITE":"http://www.cascadechristian.org/schools/FredericksonElementary.cfm","PRS_ID":73,"GRADE":"K-6","X_COORD":1171393.12970001,"Y_COORD":649042.84550001},"geometry":{"type":"Point","coordinates":[-122.38335227515273,47.09776988209587]}},{"type":"Feature","properties":{"OBJECTID":2105,"NAME":"Cascade Christian School - McAlder Campus","ADDRESS":"15502 96TH ST E","CITY":"PUYALLUP","ZIP":"98372","DISTRICT":"NOT APPLICABLE","DIST_NO":" ","TYPE":"PRIVATE","PHONE":"(253) 256-4382","WEBSITE":"https://www.cascadechristian.org/schools/mcalder_campus.cfm","PRS_ID":473,"GRADE":"K-6","X_COORD":1212034.9727,"Y_COORD":674054.2291},"geometry":{"type":"Point","coordinates":[-122.22240299601862,47.16887435527254]}},{"type":"Feature","properties":{"OBJECTID":2106,"NAME":"Cascade Christian School - Puyallup Elementary","ADDRESS":"601 9TH AVE SE","CITY":"PUYALLUP","ZIP":"98372","DISTRICT":"NOT APPLICABLE","DIST_NO":" ","TYPE":"PRIVATE","PHONE":"(253) 841-2091","WEBSITE":"http://www.cascadechristian.org/schools/PuyallupElementary.cfm","PRS_ID":486,"GRADE":"K-6","X_COORD":1196041.7202,"Y_COORD":680308.61130001},"geometry":{"type":"Point","coordinates":[-122.28725549329484,47.18504250170229]}},{"type":"Feature","properties":{"OBJECTID":2107,"NAME":"Cedarcrest Middle School","ADDRESS":"19120 13TH AVE CT E","CITY":"SPANAWAY","ZIP":"98387","DISTRICT":"BETHEL","DIST_NO":"403","TYPE":"MID","PHONE":"(253) 683-7500","WEBSITE":"https://www.bethelsd.org/cms","PRS_ID":14,"GRADE":"7-9","X_COORD":1163475.42200001,"Y_COORD":644343.3917},"geometry":{"type":"Point","coordinates":[-122.41467526651174,47.08436597651018]}},{"type":"Feature","properties":{"OBJECTID":2108,"NAME":"Centennial Elementary School","ADDRESS":"24323 MATHIAS RD E","CITY":"GRAHAM","ZIP":"98338","DISTRICT":"BETHEL","DIST_NO":"403","TYPE":"ELEM","PHONE":"(253) 683-7700","WEBSITE":"https://www.bethelsd.org/ces","PRS_ID":2,"GRADE":"K-6","X_COORD":1177683.22130001,"Y_COORD":626185.8316},"geometry":{"type":"Point","coordinates":[-122.35594476951786,47.0355260460891]}},{"type":"Feature","properties":{"OBJECTID":2109,"NAME":"Central Avenue Elementary School","ADDRESS":"4505 104TH ST E","CITY":"TACOMA","ZIP":"98446","DISTRICT":"FRANKLIN PIERCE","DIST_NO":"402","TYPE":"ELEM","PHONE":"(253) 298-3200","WEBSITE":"http://centralavenue.fpschools.org/","PRS_ID":45,"GRADE":"K-6","X_COORD":1175603.9558,"Y_COORD":672648.8299},"geometry":{"type":"Point","coordinates":[-122.36869541704985,47.16274853210189]}},{"type":"Feature","properties":{"OBJECTID":2110,"NAME":"Challenger High School","ADDRESS":"18020 B ST E","CITY":"SPANAWAY","ZIP":"98387","DISTRICT":"BETHEL","DIST_NO":"403","TYPE":"HIGH","PHONE":"(253) 683-6800","WEBSITE":"https://www.bethelsd.org/chs","PRS_ID":11,"GRADE":"9-12","X_COORD":1159603.4025,"Y_COORD":647384.4963},"geometry":{"type":"Point","coordinates":[-122.43051200723492,47.09244290965318]}},{"type":"Feature","properties":{"OBJECTID":2111,"NAME":"Chambers Primary School","ADDRESS":"9101 56TH ST W","CITY":"UNIVERSITY PLACE","ZIP":"98467","DISTRICT":"UNIVERSITY PLACE","DIST_NO":"083","TYPE":"PRIM","PHONE":"(253) 566-5650","WEBSITE":"https://cp.upsd83.org/","PRS_ID":200,"GRADE":"K-4","X_COORD":1129099.46520001,"Y_COORD":690248.855},"geometry":{"type":"Point","coordinates":[-122.55742266942364,47.207815154748616]}},{"type":"Feature","properties":{"OBJECTID":2112,"NAME":"Charles Wright Academy","ADDRESS":"7723 CHAMBERS CREEK RD W","CITY":"TACOMA","ZIP":"98467","DISTRICT":"NOT APPLICABLE","DIST_NO":" ","TYPE":"PRIVATE","PHONE":"(253) 620-8300","WEBSITE":"https://www.charleswright.org/","PRS_ID":75,"GRADE":"K-12","X_COORD":1132303.46870001,"Y_COORD":687627.4421},"geometry":{"type":"Point","coordinates":[-122.54426297685698,47.20085881230124]}},{"type":"Feature","properties":{"OBJECTID":2113,"NAME":"Cherrydale Primary School","ADDRESS":"1201 GALLOWAY ST","CITY":"STEILACOOM","ZIP":"98388","DISTRICT":"STEILACOOM","DIST_NO":"001","TYPE":"ELEM","PHONE":"(253) 983-2500","WEBSITE":"https://www.steilacoom.k12.wa.us/Domain/11","PRS_ID":133,"GRADE":"K-6","X_COORD":1121077.5131,"Y_COORD":674905.8285},"geometry":{"type":"Point","coordinates":[-122.58805224936432,47.16518542537814]}},{"type":"Feature","properties":{"OBJECTID":2114,"NAME":"Chief Leschi Schools","ADDRESS":"5625 52ND ST E","CITY":"PUYALLUP","ZIP":"98371","DISTRICT":"NOT APPLICABLE","DIST_NO":" ","TYPE":"PRIVATE","PHONE":"(253) 445-6000","WEBSITE":"https://www.leschischools.org/","PRS_ID":258,"GRADE":"K-6","X_COORD":1178841.8563,"Y_COORD":690552.5402},"geometry":{"type":"Point","coordinates":[-122.357377476067,47.212031533689725]}},{"type":"Feature","properties":{"OBJECTID":2115,"NAME":"Chloe Clark Elementary School","ADDRESS":"1700 PALISADE BLVD","CITY":"DUPONT","ZIP":"98327","DISTRICT":"STEILACOOM","DIST_NO":"001","TYPE":"ELEM","PHONE":"(253) 583-7100","WEBSITE":"https://www.steilacoom.k12.wa.us/Domain/10","PRS_ID":312,"GRADE":"K-6","X_COORD":1107821.71259999,"Y_COORD":650663.10510001},"geometry":{"type":"Point","coordinates":[-122.63868045039972,47.09776745084598]}},{"type":"Feature","properties":{"OBJECTID":2116,"NAME":"Christensen Elementary School","ADDRESS":"10232 BARNES LN S","CITY":"TACOMA","ZIP":"98444","DISTRICT":"FRANKLIN PIERCE","DIST_NO":"402","TYPE":"ELEM","PHONE":"(253) 298-3300","WEBSITE":"http://christensen.fpschools.org/","PRS_ID":46,"GRADE":"K-6","X_COORD":1156239.19949999,"Y_COORD":673487.4532},"geometry":{"type":"Point","coordinates":[-122.44660013173632,47.16376320933967]}},{"type":"Feature","properties":{"OBJECTID":2117,"NAME":"City University","ADDRESS":"1145 BROADWAY PLAZA SUITE 600","CITY":"TACOMA","ZIP":"98402","DISTRICT":"NOT APPLICABLE","DIST_NO":" ","TYPE":"UNIVERSITY","PHONE":"(253) 896-3210","WEBSITE":"https://www.cityu.edu/about-cityu/locations-overview/","PRS_ID":365,"GRADE":"Higher Education","X_COORD":1158823.33319999,"Y_COORD":705493.15099999},"geometry":{"type":"Point","coordinates":[-122.43937819253365,47.251661231070194]}},{"type":"Feature","properties":{"OBJECTID":2118,"NAME":"Clover Creek Elementary School","ADDRESS":"16715 36TH AVE E","CITY":"TACOMA","ZIP":"98446","DISTRICT":"BETHEL","DIST_NO":"403","TYPE":"ELEM","PHONE":"(253) 683-7800","WEBSITE":"https://www.bethelsd.org/cces","PRS_ID":3,"GRADE":"PRE-6","X_COORD":1172270.5748,"Y_COORD":650916.66509999},"geometry":{"type":"Point","coordinates":[-122.38000955702927,47.10296345829084]}},{"type":"Feature","properties":{"OBJECTID":2119,"NAME":"Clover Park High School","ADDRESS":"11023 GRAVELLY LAKE DR SW","CITY":"LAKEWOOD","ZIP":"98499","DISTRICT":"CLOVER PARK","DIST_NO":"400","TYPE":"HIGH","PHONE":"(253) 583-5500","WEBSITE":"https://cphs.cloverpark.k12.wa.us/","PRS_ID":30,"GRADE":"9-12","X_COORD":1138440.2277,"Y_COORD":671810.2809},"geometry":{"type":"Point","coordinates":[-122.51795645595902,47.15793998563674]}},{"type":"Feature","properties":{"OBJECTID":2120,"NAME":"Clover Park Technical College - Main Campus","ADDRESS":"4500 STEILACOOM BLVD SW","CITY":"LAKEWOOD","ZIP":"98499","DISTRICT":"NOT APPLICABLE","DIST_NO":" ","TYPE":"TECHNICAL","PHONE":"(253) 598-5800","WEBSITE":"http://www.cptc.edu/contact","PRS_ID":249,"GRADE":"Higher Education","X_COORD":1143490.2035,"Y_COORD":677880.3485},"geometry":{"type":"Point","coordinates":[-122.49828223607612,47.17492962682211]}},{"type":"Feature","properties":{"OBJECTID":2121,"NAME":"Clover Park Technical College - South Hill Campus","ADDRESS":"17214 110TH AVE E","CITY":"PUYALLUP","ZIP":"98374","DISTRICT":"NOT APPLICABLE","DIST_NO":" ","TYPE":"TECHNICAL","PHONE":"(253) 583-8904","WEBSITE":"http://www.cptc.edu/contact","PRS_ID":333,"GRADE":"Higher Education","X_COORD":1195979.9769,"Y_COORD":648746.324},"geometry":{"type":"Point","coordinates":[-122.28463209247839,47.098524385798726]}},{"type":"Feature","properties":{"OBJECTID":2122,"NAME":"Collins Elementary School","ADDRESS":"4608 128TH ST E","CITY":"TACOMA","ZIP":"98446","DISTRICT":"FRANKLIN PIERCE","DIST_NO":"402","TYPE":"ELEM","PHONE":"(253) 298-3400","WEBSITE":"http://collins.fpschools.org/","PRS_ID":47,"GRADE":"K-6","X_COORD":1175934.8219,"Y_COORD":664008.9365},"geometry":{"type":"Point","coordinates":[-122.36654390668703,47.13908814010854]}},{"type":"Feature","properties":{"OBJECTID":2123,"NAME":"Columbia Crest A-STEM Academy","ADDRESS":"24503 SR 706 E","CITY":"ASHFORD","ZIP":"98304","DISTRICT":"EATONVILLE","DIST_NO":"404","TYPE":"ELEM","PHONE":"(360) 569-2567","WEBSITE":"https://www.eatonville.wednet.edu/cca","PRS_ID":38,"GRADE":"K-6","X_COORD":1237003.3554,"Y_COORD":522526.274},"geometry":{"type":"Point","coordinates":[-122.10961002986728,46.75493546961401]}},{"type":"Feature","properties":{"OBJECTID":2124,"NAME":"Columbia Junior High","ADDRESS":"2901 54TH AVE E","CITY":"FIFE","ZIP":"98424","DISTRICT":"FIFE","DIST_NO":"417","TYPE":"JRHIGH","PHONE":"(253) 517-1600","WEBSITE":"https://cjh.fifeschools.com/","PRS_ID":325,"GRADE":"7-9","X_COORD":1179533.6057,"Y_COORD":697320.39669999},"geometry":{"type":"Point","coordinates":[-122.35523534254074,47.230626390777736]}},{"type":"Feature","properties":{"OBJECTID":2125,"NAME":"Community Transition Program and PIA","ADDRESS":"5800 SOUNDVIEW DR - BLDG E","CITY":"GIG HARBOR","ZIP":"98335","DISTRICT":"PENINSULA","DIST_NO":"401","TYPE":"OTHER","PHONE":"(253) 530-3850","WEBSITE":"https://psd401.net/community-transition-program/","PRS_ID":474,"GRADE":"Higher Education","X_COORD":1124341.7756,"Y_COORD":728122.4814},"geometry":{"type":"Point","coordinates":[-122.5805765651983,47.31127356636666]}},{"type":"Feature","properties":{"OBJECTID":2126,"NAME":"Concordia Christian Academy","ADDRESS":"202 E 56TH ST","CITY":"TACOMA","ZIP":"98404","DISTRICT":"NOT APPLICABLE","DIST_NO":" ","TYPE":"PRIVATE","PHONE":"(253) 475-9513","WEBSITE":"https://www.concordiachristianacademy.org/","PRS_ID":76,"GRADE":"K-12","X_COORD":1161421.0812,"Y_COORD":688548.8565},"geometry":{"type":"Point","coordinates":[-122.42725433207724,47.20539385684116]}},{"type":"Feature","properties":{"OBJECTID":2127,"NAME":"Cougar Mountain Middle School","ADDRESS":"5108 260TH ST E","CITY":"GRAHAM","ZIP":"98338","DISTRICT":"BETHEL","DIST_NO":"403","TYPE":"MID","PHONE":"(253) 683-8000","WEBSITE":"https://www.bethelsd.org/cmms","PRS_ID":318,"GRADE":"7-9","X_COORD":1176379.5626,"Y_COORD":619945.05840001},"geometry":{"type":"Point","coordinates":[-122.3605812597511,47.01833519431071]}},{"type":"Feature","properties":{"OBJECTID":2128,"NAME":"Covenant High School","ADDRESS":"620 S SHIRLEY ST","CITY":"TACOMA","ZIP":"98465","DISTRICT":"NOT APPLICABLE","DIST_NO":" ","TYPE":"HIGH","PHONE":"(253) 759-9570","WEBSITE":"http://chstacoma.org/","PRS_ID":341,"GRADE":"9-12","X_COORD":1141128.212,"Y_COORD":706987.546},"geometry":{"type":"Point","coordinates":[-122.51075957202633,47.25454240750239]}},{"type":"Feature","properties":{"OBJECTID":2129,"NAME":"Crescent Heights Elementary School","ADDRESS":"4110 NASSAU AVE NE","CITY":"TACOMA","ZIP":"98422","DISTRICT":"TACOMA","DIST_NO":"010","TYPE":"ELEM","PHONE":"(253) 571-5500","WEBSITE":"https://www.tacomaschools.org/ch/Pages/default.aspx","PRS_ID":282,"GRADE":"K-5","X_COORD":1168927.60609999,"Y_COORD":720942.7043},"geometry":{"type":"Point","coordinates":[-122.4002026720918,47.294679925067996]}},{"type":"Feature","properties":{"OBJECTID":2130,"NAME":"Crestwood Elementary School","ADDRESS":"3914 WEST TAPPS DR E","CITY":"BONNEY LAKE","ZIP":"98391","DISTRICT":"SUMNER","DIST_NO":"320","TYPE":"ELEM","PHONE":"(253) 891-4550","WEBSITE":"https://www.sumnersd.org/cwe","PRS_ID":136,"GRADE":"K-6","X_COORD":1217925.19220001,"Y_COORD":692432.1654},"geometry":{"type":"Point","coordinates":[-122.20032008045278,47.21959995895388]}},{"type":"Feature","properties":{"OBJECTID":2131,"NAME":"Curtis High School","ADDRESS":"8425 40TH ST W","CITY":"UNIVERSITY PLACE","ZIP":"98466","DISTRICT":"UNIVERSITY PLACE","DIST_NO":"083","TYPE":"HIGH","PHONE":"(253) 566-5710","WEBSITE":"https://chs.upsd83.org/","PRS_ID":206,"GRADE":"9-12","X_COORD":1130941.5869,"Y_COORD":695584.04880001},"geometry":{"type":"Point","coordinates":[-122.55057171112487,47.22256918137836]}},{"type":"Feature","properties":{"OBJECTID":2132,"NAME":"Curtis Junior High School","ADDRESS":"3725 GRANDVIEW DR W","CITY":"UNIVERSITY PLACE","ZIP":"98466","DISTRICT":"UNIVERSITY PLACE","DIST_NO":"083","TYPE":"JRHIGH","PHONE":"(253) 566-5670","WEBSITE":"https://cjh.upsd83.org/","PRS_ID":207,"GRADE":"7-9","X_COORD":1129913.21070001,"Y_COORD":695531.42739999},"geometry":{"type":"Point","coordinates":[-122.55470340690549,47.2223515939737]}},{"type":"Feature","properties":{"OBJECTID":2133,"NAME":"Custer Elementary School","ADDRESS":"7801 STEILACOOM BLVD SW","CITY":"LAKEWOOD","ZIP":"98498","DISTRICT":"CLOVER PARK","DIST_NO":"400","TYPE":"ELEM","PHONE":"(253) 583-5230","WEBSITE":"https://custer.cloverpark.k12.wa.us/","PRS_ID":17,"GRADE":"K-6","X_COORD":1132963.7726,"Y_COORD":680357.99779999},"geometry":{"type":"Point","coordinates":[-122.54085104060529,47.180981584590455]}},{"type":"Feature","properties":{"OBJECTID":2134,"NAME":"Daffodil Valley Elementary School","ADDRESS":"1509 VALLEY AVE\r\n","CITY":"SUMNER","ZIP":"98390","DISTRICT":"SUMNER","DIST_NO":"320","TYPE":"ELEM","PHONE":"(253) 891-4600","WEBSITE":"https://www.sumnersd.org/dve","PRS_ID":274,"GRADE":"K-6","X_COORD":1211290.3766,"Y_COORD":688289.96879999},"geometry":{"type":"Point","coordinates":[-122.22664861741839,47.20785085208039]}},{"type":"Feature","properties":{"OBJECTID":2135,"NAME":"DeLong Elementary School","ADDRESS":"4901 S 14TH ST","CITY":"TACOMA","ZIP":"98405","DISTRICT":"TACOMA","DIST_NO":"010","TYPE":"ELEM","PHONE":"(253) 571-5800","WEBSITE":"https://www.tacomaschools.org/delong/Pages/default.aspx","PRS_ID":151,"GRADE":"K-5","X_COORD":1143298.9197,"Y_COORD":705053.5367},"geometry":{"type":"Point","coordinates":[-122.50182372221938,47.24939309007924]}},{"type":"Feature","properties":{"OBJECTID":2136,"NAME":"Dessie F. Evans Elementary School","ADDRESS":"7911 144TH ST E","CITY":"PUYALLUP","ZIP":"98373","DISTRICT":"PUYALLUP","DIST_NO":"003","TYPE":"ELEM","PHONE":"(253) 864-5501","WEBSITE":"https://eva.puyallup.k12.wa.us/","PRS_ID":480,"GRADE":"K-6","X_COORD":1186434.03910001,"Y_COORD":659638.65000001},"geometry":{"type":"Point","coordinates":[-122.32396144536845,47.127782445022376]}},{"type":"Feature","properties":{"OBJECTID":2137,"NAME":"Dieringer Heights Elementary School","ADDRESS":"21727 34TH ST E","CITY":"LAKE TAPPS","ZIP":"98391","DISTRICT":"DIERINGER","DIST_NO":"343","TYPE":"ELEM","PHONE":"(253) 826-4937","WEBSITE":"https://dhes.dieringer.wednet.edu/","PRS_ID":276,"GRADE":"K-6","X_COORD":1233268.38,"Y_COORD":695142.7342},"geometry":{"type":"Point","coordinates":[-122.13881602467964,47.22792016806124]}},{"type":"Feature","properties":{"OBJECTID":2138,"NAME":"Discovery Elementary School","ADDRESS":"4905 ROSEDALE ST","CITY":"GIG HARBOR","ZIP":"98335","DISTRICT":"PENINSULA","DIST_NO":"401","TYPE":"ELEM","PHONE":"(253) 530-1200","WEBSITE":"https://psd401.net/des/","PRS_ID":58,"GRADE":"K-6","X_COORD":1118859.35879999,"Y_COORD":735597.8316},"geometry":{"type":"Point","coordinates":[-122.60347223173936,47.331362060610346]}},{"type":"Feature","properties":{"OBJECTID":2139,"NAME":"Discovery Primary School","ADDRESS":"1205 19TH AVE","CITY":"MILTON","ZIP":"98354","DISTRICT":"FIFE","DIST_NO":"417","TYPE":"PRIM","PHONE":"(253) 517-1200","WEBSITE":"https://discovery.fifeschools.com/","PRS_ID":41,"GRADE":"K-2","X_COORD":1190870.1938,"Y_COORD":703753.6406},"geometry":{"type":"Point","coordinates":[-122.31021155487389,47.248981584773155]}},{"type":"Feature","properties":{"OBJECTID":2140,"NAME":"Donald Eismann Elementary School","ADDRESS":"13802 CANYON VIEW BLVD E","CITY":"BONNEY LAKE","ZIP":"98391","DISTRICT":"SUMNER","DIST_NO":"320","TYPE":"ELEM","PHONE":"(253) 891-4500","WEBSITE":"https://www.sumnersd.org/dee","PRS_ID":401,"GRADE":"K-6","X_COORD":1223501.14920001,"Y_COORD":659980.27519999},"geometry":{"type":"Point","coordinates":[-122.17511319681935,47.13097290680146]}},{"type":"Feature","properties":{"OBJECTID":2141,"NAME":"Dower Elementary School","ADDRESS":"7817 JOHN DOWER RD W","CITY":"LAKEWOOD","ZIP":"98499","DISTRICT":"CLOVER PARK","DIST_NO":"400","TYPE":"ELEM","PHONE":"(253) 583-5240","WEBSITE":"https://dower.cloverpark.k12.wa.us/","PRS_ID":18,"GRADE":"K-6","X_COORD":1137567.4517,"Y_COORD":681906.5317},"geometry":{"type":"Point","coordinates":[-122.5225039796467,47.18555091265585]}},{"type":"Feature","properties":{"OBJECTID":2142,"NAME":"Downing Elementary School","ADDRESS":"2502 N ORCHARD ST","CITY":"TACOMA","ZIP":"98406","DISTRICT":"TACOMA","DIST_NO":"010","TYPE":"ELEM","PHONE":"(253) 571-7100","WEBSITE":"https://www.tacomaschools.org/downing/Pages/default.aspx","PRS_ID":152,"GRADE":"K-5","X_COORD":1142301.32439999,"Y_COORD":712435.963},"geometry":{"type":"Point","coordinates":[-122.50659527459185,47.269557102711865]}},{"type":"Feature","properties":{"OBJECTID":2143,"NAME":"Drum Intermediate School","ADDRESS":"4909 79TH AVE W","CITY":"UNIVERSITY PLACE","ZIP":"98467","DISTRICT":"UNIVERSITY PLACE","DIST_NO":"083","TYPE":"INTER","PHONE":"(253) 566-5660","WEBSITE":"https://di.upsd83.org/","PRS_ID":268,"GRADE":"6-7","X_COORD":1133211.26629999,"Y_COORD":691569.3661},"geometry":{"type":"Point","coordinates":[-122.54102260218382,47.21172722935592]}},{"type":"Feature","properties":{"OBJECTID":2144,"NAME":"Early Learning Center","ADDRESS":"12223 A ST S","CITY":"TACOMA","ZIP":"98444","DISTRICT":"FRANKLIN PIERCE","DIST_NO":"402","TYPE":"OTHER","PHONE":"(253) 298-4675","WEBSITE":"http://elc.fpschools.org/","PRS_ID":49,"GRADE":"PRE","X_COORD":1159925.13160001,"Y_COORD":666764.70999999},"geometry":{"type":"Point","coordinates":[-122.43112546089385,47.14558504435278]}},{"type":"Feature","properties":{"OBJECTID":2145,"NAME":"Eatonville Elementary School","ADDRESS":"209 LYNCH CREEK RD E","CITY":"EATONVILLE","ZIP":"98328","DISTRICT":"EATONVILLE","DIST_NO":"404","TYPE":"ELEM","PHONE":"(360) 879-1600","WEBSITE":"https://www.eatonville.wednet.edu/ees","PRS_ID":39,"GRADE":"K-6","X_COORD":1199600.5264,"Y_COORD":565479.86929999},"geometry":{"type":"Point","coordinates":[-122.26262821830855,46.87049661091348]}},{"type":"Feature","properties":{"OBJECTID":2146,"NAME":"Eatonville High School","ADDRESS":"302 MASHELL AVE N","CITY":"EATONVILLE","ZIP":"98328","DISTRICT":"EATONVILLE","DIST_NO":"404","TYPE":"HIGH","PHONE":"(360) 879-1200","WEBSITE":"https://www.eatonville.wednet.edu/ehs","PRS_ID":233,"GRADE":"9-12","X_COORD":1198295.9523,"Y_COORD":566004.44140001},"geometry":{"type":"Point","coordinates":[-122.26788989081491,46.871854574691646]}},{"type":"Feature","properties":{"OBJECTID":2147,"NAME":"Eatonville Middle School","ADDRESS":"207 CARTER ST E","CITY":"EATONVILLE","ZIP":"98328","DISTRICT":"EATONVILLE","DIST_NO":"404","TYPE":"MID","PHONE":"(360) 879-1400","WEBSITE":"https://www.eatonville.wednet.edu/ems","PRS_ID":40,"GRADE":"6-8","X_COORD":1199567.5478,"Y_COORD":564795.1647},"geometry":{"type":"Point","coordinates":[-122.26269886776932,46.86861760317579]}},{"type":"Feature","properties":{"OBJECTID":2148,"NAME":"Edgemont Junior High School","ADDRESS":"2300 110TH AVE E","CITY":"EDGEWOOD","ZIP":"98372","DISTRICT":"PUYALLUP","DIST_NO":"003","TYPE":"JRHIGH","PHONE":"(253) 841-8727","WEBSITE":"https://ejh.puyallup.k12.wa.us/","PRS_ID":129,"GRADE":"7-9","X_COORD":1197281.6737,"Y_COORD":699084.2034},"geometry":{"type":"Point","coordinates":[-122.28397780064495,47.236583317989044]}},{"type":"Feature","properties":{"OBJECTID":2149,"NAME":"Edgerton Elementary School","ADDRESS":"16528 127TH AVE CT E","CITY":"PUYALLUP","ZIP":"98374","DISTRICT":"PUYALLUP","DIST_NO":"003","TYPE":"ELEM","PHONE":"(253) 840-8809","WEBSITE":"https://edg.puyallup.k12.wa.us/","PRS_ID":368,"GRADE":"K-6","X_COORD":1202281.61579999,"Y_COORD":651460.1543},"geometry":{"type":"Point","coordinates":[-122.25957942058729,47.10635144536203]}},{"type":"Feature","properties":{"OBJECTID":2150,"NAME":"Edison Elementary School","ADDRESS":"5830 S PINE ST","CITY":"TACOMA","ZIP":"98409","DISTRICT":"TACOMA","DIST_NO":"010","TYPE":"ELEM","PHONE":"(253) 571-1700","WEBSITE":"https://www.tacomaschools.org/edison/Pages/default.aspx","PRS_ID":153,"GRADE":"K-5","X_COORD":1149479.9127,"Y_COORD":688253.45900001},"geometry":{"type":"Point","coordinates":[-122.4752504151944,47.203774392109686]}},{"type":"Feature","properties":{"OBJECTID":2151,"NAME":"Elhi Hill High School Program","ADDRESS":"1202 WOOD AVE","CITY":"SUMNER","ZIP":"98390","DISTRICT":"SUMNER","DIST_NO":"320","TYPE":"HIGH","PHONE":"(253) 891-6000","WEBSITE":"https://www.sumnersd.org/Page/2978","PRS_ID":482,"GRADE":"9-12","X_COORD":1208447.9569,"Y_COORD":687276.4095},"geometry":{"type":"Point","coordinates":[-122.2379919492915,47.20490150087837]}},{"type":"Feature","properties":{"OBJECTID":2152,"NAME":"Elk Plain School of Choice","ADDRESS":"22015 22ND AVE E","CITY":"SPANAWAY","ZIP":"98387","DISTRICT":"BETHEL","DIST_NO":"403","TYPE":"OTHER","PHONE":"(253) 683-7900","WEBSITE":"https://www.bethelsd.org/epsoc","PRS_ID":278,"GRADE":"PRE-8","X_COORD":1167327.54090001,"Y_COORD":634103.1125},"geometry":{"type":"Point","coordinates":[-122.39822783701597,47.05655229272167]}},{"type":"Feature","properties":{"OBJECTID":2153,"NAME":"Elk Ridge Elementary School","ADDRESS":"340 N RIVER AVE","CITY":"BUCKLEY","ZIP":"98321","DISTRICT":"WHITE RIVER","DIST_NO":"416","TYPE":"ELEM","PHONE":"(360) 829-3354","WEBSITE":"http://elkridge.whiteriver.wednet.edu/","PRS_ID":208,"GRADE":"K-6","X_COORD":1262718.6371,"Y_COORD":672111.442},"geometry":{"type":"Point","coordinates":[-122.01852152141414,47.16640351014796]}},{"type":"Feature","properties":{"OBJECTID":2154,"NAME":"Elmhurst Elementary School","ADDRESS":"420 133RD ST E","CITY":"TACOMA","ZIP":"98445","DISTRICT":"FRANKLIN PIERCE","DIST_NO":"402","TYPE":"ELEM","PHONE":"(253) 298-3500","WEBSITE":"http://elmhurst.fpschools.org/","PRS_ID":48,"GRADE":"K-6","X_COORD":1161448.3097,"Y_COORD":663027.6829},"geometry":{"type":"Point","coordinates":[-122.42463973941628,47.13544410203864]}},{"type":"Feature","properties":{"OBJECTID":2155,"NAME":"Emerald Hills Elementary School","ADDRESS":"19515 SOUTH TAPPS DR E","CITY":"BONNEY LAKE","ZIP":"98391","DISTRICT":"SUMNER","DIST_NO":"320","TYPE":"ELEM","PHONE":"(253) 891-4750","WEBSITE":"https://www.sumnersd.org/ehe","PRS_ID":137,"GRADE":"K-6","X_COORD":1225562.7965,"Y_COORD":685716.5094},"geometry":{"type":"Point","coordinates":[-122.16901994026213,47.20163904565825]}},{"type":"Feature","properties":{"OBJECTID":2156,"NAME":"Emerald Ridge High School","ADDRESS":"12405 184TH ST E","CITY":"PUYALLUP","ZIP":"98374","DISTRICT":"PUYALLUP","DIST_NO":"003","TYPE":"HIGH","PHONE":"(253) 435-6300","WEBSITE":"https://erhs.puyallup.k12.wa.us/","PRS_ID":259,"GRADE":"9-12","X_COORD":1201256.55149999,"Y_COORD":645583.9782},"geometry":{"type":"Point","coordinates":[-122.26316734350085,47.0901813572895]}},{"type":"Feature","properties":{"OBJECTID":2157,"NAME":"Endeavour Intermediate School","ADDRESS":"1304 17TH AVE\r\n","CITY":"MILTON","ZIP":"98354","DISTRICT":"FIFE","DIST_NO":"417","TYPE":"INTER","PHONE":"(253) 517-1400","WEBSITE":"https://endeavour.fifeschools.com/","PRS_ID":267,"GRADE":"2-5","X_COORD":1190674.42900001,"Y_COORD":703154.749},"geometry":{"type":"Point","coordinates":[-122.310944215323,47.24732773980783]}},{"type":"Feature","properties":{"OBJECTID":2158,"NAME":"Evergreen Elementary School","ADDRESS":"1311 172ND ST E","CITY":"SPANAWAY","ZIP":"98387","DISTRICT":"BETHEL","DIST_NO":"403","TYPE":"ELEM","PHONE":"(253) 683-8200","WEBSITE":"https://www.bethelsd.org/ees","PRS_ID":4,"GRADE":"K-6","X_COORD":1164275.1648,"Y_COORD":650631.89669999},"geometry":{"type":"Point","coordinates":[-122.41207782141136,47.10165599685568]}},{"type":"Feature","properties":{"OBJECTID":2159,"NAME":"Evergreen Elementary School - Fort Lewis","ADDRESS":"9020 BLAINE AVE","CITY":"JBLM","ZIP":"98433","DISTRICT":"CLOVER PARK","DIST_NO":"400","TYPE":"ELEM","PHONE":"(253) 583-5250","WEBSITE":"https://evergreen.cloverpark.k12.wa.us/","PRS_ID":222,"GRADE":"K-6","X_COORD":1127413.11,"Y_COORD":656133.5157},"geometry":{"type":"Point","coordinates":[-122.56061973043121,47.1141906282483]}},{"type":"Feature","properties":{"OBJECTID":2160,"NAME":"Evergreen Elementary School - Lakebay","ADDRESS":"1820 KEY PENINSULA HWY S","CITY":"LAKEBAY","ZIP":"98349","DISTRICT":"PENINSULA","DIST_NO":"401","TYPE":"ELEM","PHONE":"(253) 530-1300","WEBSITE":"https://psd401.net/ees/","PRS_ID":59,"GRADE":"K-6","X_COORD":1076175.1066,"Y_COORD":703586.6435},"geometry":{"type":"Point","coordinates":[-122.77181126773858,47.2403879241295]}},{"type":"Feature","properties":{"OBJECTID":2161,"NAME":"Evergreen Lutheran High School","ADDRESS":"7306 WALLER RD E","CITY":"TACOMA","ZIP":"98443","DISTRICT":"NOT APPLICABLE","DIST_NO":" ","TYPE":"PRIVATE","PHONE":"(253) 946-4488","WEBSITE":"https://www.elhs.org/","PRS_ID":380,"GRADE":"9-12","X_COORD":1169753.1012,"Y_COORD":682698.4223},"geometry":{"type":"Point","coordinates":[-122.39317829288623,47.18991151941923]}},{"type":"Feature","properties":{"OBJECTID":2162,"NAME":"Evergreen Primary School - University Place","ADDRESS":"7102 40TH ST W","CITY":"UNIVERSITY PLACE","ZIP":"98466","DISTRICT":"UNIVERSITY PLACE","DIST_NO":"083","TYPE":"PRIM","PHONE":"(253) 566-5680","WEBSITE":"https://ep.upsd83.org/","PRS_ID":202,"GRADE":"K-2","X_COORD":1135883.1824,"Y_COORD":694183.69410001},"geometry":{"type":"Point","coordinates":[-122.53054619080751,47.219081585241156]}},{"type":"Feature","properties":{"OBJECTID":2163,"NAME":"Evergreen State College","ADDRESS":"1210 6TH AVE","CITY":"TACOMA","ZIP":"98405","DISTRICT":"NOT APPLICABLE","DIST_NO":" ","TYPE":"COLLEGE","PHONE":"(253) 680-3000","WEBSITE":"https://www.evergreen.edu/tacoma","PRS_ID":255,"GRADE":"Higher Education","X_COORD":1155007.36839999,"Y_COORD":707319.661},"geometry":{"type":"Point","coordinates":[-122.45492109200961,47.256409127990025]}},{"type":"Feature","properties":{"OBJECTID":2164,"NAME":"Faith Baptist Christian Academy","ADDRESS":"5714 29TH ST NE","CITY":"TACOMA","ZIP":"98422","DISTRICT":"NOT APPLICABLE","DIST_NO":" ","TYPE":"PRIVATE","PHONE":"(253) 927-7673","WEBSITE":"http://www.foundedonfaith.com/education-fbca.php","PRS_ID":373,"GRADE":"K-12","X_COORD":1176206.611,"Y_COORD":716059.2573},"geometry":{"type":"Point","coordinates":[-122.37041117791455,47.281772138978]}},{"type":"Feature","properties":{"OBJECTID":2165,"NAME":"Faith Lutheran Elementary School","ADDRESS":"101 S 96TH ST","CITY":"TACOMA","ZIP":"98444","DISTRICT":"NOT APPLICABLE","DIST_NO":" ","TYPE":"PRIVATE","PHONE":"(253) 537-2919","WEBSITE":"https://www.faith-wels.org/","PRS_ID":78,"GRADE":"K-12","X_COORD":1159897.30580001,"Y_COORD":675860.0318},"geometry":{"type":"Point","coordinates":[-122.43213249828788,47.17051282148142]}},{"type":"Feature","properties":{"OBJECTID":2166,"NAME":"Fawcett Elementary School","ADDRESS":"126 E 60TH ST","CITY":"TACOMA","ZIP":"98404","DISTRICT":"TACOMA","DIST_NO":"010","TYPE":"ELEM","PHONE":"(253) 571-4700","WEBSITE":"https://www.tacomaschools.org/fawcett/Pages/default.aspx","PRS_ID":154,"GRADE":"K-5","X_COORD":1160714.2145,"Y_COORD":687367.8219},"geometry":{"type":"Point","coordinates":[-122.42998105052502,47.202109390777544]}},{"type":"Feature","properties":{"OBJECTID":2167,"NAME":"Fern Hill Elementary School","ADDRESS":"8442 S PARK AVE","CITY":"TACOMA","ZIP":"98444","DISTRICT":"TACOMA","DIST_NO":"010","TYPE":"ELEM","PHONE":"(253) 571-3888","WEBSITE":"https://www.tacomaschools.org/fh/Pages/default.aspx","PRS_ID":155,"GRADE":"K-5","X_COORD":1157378.9672,"Y_COORD":679308.2703},"geometry":{"type":"Point","coordinates":[-122.44259587199761,47.17979455610644]}},{"type":"Feature","properties":{"OBJECTID":2168,"NAME":"Ferrucci Junior High School","ADDRESS":"3213 WILDWOOD PARK DR","CITY":"PUYALLUP","ZIP":"98374","DISTRICT":"PUYALLUP","DIST_NO":"003","TYPE":"JRHIGH","PHONE":"(253) 841-8756","WEBSITE":"https://fjh.puyallup.k12.wa.us/","PRS_ID":130,"GRADE":"7-9","X_COORD":1200189.5958,"Y_COORD":671441.78129999},"geometry":{"type":"Point","coordinates":[-122.26977853430172,47.160994558521814]}},{"type":"Feature","properties":{"OBJECTID":2169,"NAME":"Fife High School","ADDRESS":"5616 20TH ST E","CITY":"FIFE","ZIP":"98424","DISTRICT":"FIFE","DIST_NO":"417","TYPE":"HIGH","PHONE":"(253) 517-1100","WEBSITE":"https://fhs.fifeschools.com/","PRS_ID":42,"GRADE":"9-12","X_COORD":1180353.6565,"Y_COORD":699886.7252},"geometry":{"type":"Point","coordinates":[-122.35217806464898,47.23771332520785]}},{"type":"Feature","properties":{"OBJECTID":2170,"NAME":"Firgrove Elementary School","ADDRESS":"13918 MERIDIAN AVE E","CITY":"PUYALLUP","ZIP":"98373","DISTRICT":"PUYALLUP","DIST_NO":"003","TYPE":"ELEM","PHONE":"(253) 841-8733","WEBSITE":"https://fir.puyallup.k12.wa.us/","PRS_ID":104,"GRADE":"K-6","X_COORD":1193794.4536,"Y_COORD":660360.9068},"geometry":{"type":"Point","coordinates":[-122.2944658739733,47.13022504040589]}},{"type":"Feature","properties":{"OBJECTID":2171,"NAME":"First Creek Middle School","ADDRESS":"1801 E 56TH ST","CITY":"TACOMA","ZIP":"98404","DISTRICT":"TACOMA","DIST_NO":"010","TYPE":"MID","PHONE":"(253) 571-2700","WEBSITE":"https://www.tacomaschools.org/fc/Pages/default.aspx","PRS_ID":196,"GRADE":"6-8","X_COORD":1167079.6795,"Y_COORD":689500.6292},"geometry":{"type":"Point","coordinates":[-122.40458812894573,47.20837937048418]}},{"type":"Feature","properties":{"OBJECTID":2172,"NAME":"First Presbyterian Church School","ADDRESS":"20 TACOMA AVE S","CITY":"TACOMA","ZIP":"98402","DISTRICT":"NOT APPLICABLE","DIST_NO":" ","TYPE":"PRIVATE","PHONE":"(253) 225-1721","WEBSITE":"http://www.fpcschool.org/","PRS_ID":377,"GRADE":"K-8","X_COORD":1156969.00650001,"Y_COORD":709754.61499999},"geometry":{"type":"Point","coordinates":[-122.44726611894512,47.263215898712126]}},{"type":"Feature","properties":{"OBJECTID":2173,"NAME":"Firwood Secondary School","ADDRESS":"8805 STEILACOOM BLVD SW","CITY":"LAKEWOOD","ZIP":"98498","DISTRICT":"CLOVER PARK","DIST_NO":"400","TYPE":"HIGH","PHONE":"(253) 583-5416","WEBSITE":"http://www.cloverpark.k12.wa.us/Dept/CommunityRelations/NewsandPubsFiles/AtAGlance.aspx","PRS_ID":273,"GRADE":"9-12","X_COORD":1128053.56280001,"Y_COORD":680859.65899999},"geometry":{"type":"Point","coordinates":[-122.5606424561392,47.18200656358982]}},{"type":"Feature","properties":{"OBJECTID":2174,"NAME":"Foothills Elementary School","ADDRESS":"10621 234TH AVE E","CITY":"BUCKLEY","ZIP":"98321","DISTRICT":"WHITE RIVER","DIST_NO":"416","TYPE":"ELEM","PHONE":"(360) 829-3355","WEBSITE":"http://foothills.whiteriver.wednet.edu/","PRS_ID":209,"GRADE":"K-6","X_COORD":1238808.609,"Y_COORD":670539.611},"geometry":{"type":"Point","coordinates":[-122.11449555624583,47.16079294157921]}},{"type":"Feature","properties":{"OBJECTID":2175,"NAME":"Ford Middle School","ADDRESS":"1602 104TH ST E","CITY":"TACOMA","ZIP":"98445","DISTRICT":"FRANKLIN PIERCE","DIST_NO":"402","TYPE":"MID","PHONE":"(253) 298-3600","WEBSITE":"http://ford.fpschools.org/","PRS_ID":54,"GRADE":"6-8","X_COORD":1165711.73649999,"Y_COORD":672168.6406},"geometry":{"type":"Point","coordinates":[-122.40840323901539,47.16078303058287]}},{"type":"Feature","properties":{"OBJECTID":2176,"NAME":"Foss High School","ADDRESS":"2112 S TYLER ST","CITY":"TACOMA","ZIP":"98405","DISTRICT":"TACOMA","DIST_NO":"010","TYPE":"HIGH","PHONE":"(253) 571-7300","WEBSITE":"https://www.tacomaschools.org/foss/Pages/default.aspx","PRS_ID":185,"GRADE":"9-12","X_COORD":1144906.2869,"Y_COORD":701054.87270001},"geometry":{"type":"Point","coordinates":[-122.49494667862358,47.23854524087748]}},{"type":"Feature","properties":{"OBJECTID":2177,"NAME":"Four Heroes Elementary School","ADDRESS":"9101 LAKEWOOD DR SW","CITY":"LAKEWOOD","ZIP":"98499","DISTRICT":"CLOVER PARK","DIST_NO":"400","TYPE":"ELEM","PHONE":"(253) 583-5340","WEBSITE":"https://fourheroes.cloverpark.k12.wa.us/","PRS_ID":463,"GRADE":"6-8","X_COORD":1141868.4293,"Y_COORD":677822.3946},"geometry":{"type":"Point","coordinates":[-122.50479512460608,47.174657964159074]}},{"type":"Feature","properties":{"OBJECTID":2178,"NAME":"Franklin Elementary School","ADDRESS":"1402 S LAWRENCE ST","CITY":"TACOMA","ZIP":"98405","DISTRICT":"TACOMA","DIST_NO":"010","TYPE":"ELEM","PHONE":"(253) 571-1400","WEBSITE":"https://www.tacomaschools.org/franklin/Pages/default.aspx","PRS_ID":156,"GRADE":"K-5","X_COORD":1148914.67110001,"Y_COORD":704660.41850001},"geometry":{"type":"Point","coordinates":[-122.47917970817197,47.248704133929955]}},{"type":"Feature","properties":{"OBJECTID":2179,"NAME":"Franklin Pierce High School","ADDRESS":"11002 18TH AVE E","CITY":"TACOMA","ZIP":"98445","DISTRICT":"FRANKLIN PIERCE","DIST_NO":"402","TYPE":"HIGH","PHONE":"(253) 298-3800","WEBSITE":"http://franklinpiercehighschool.fpschools.org/","PRS_ID":52,"GRADE":"9-12","X_COORD":1165780.3036,"Y_COORD":670735.04279999},"geometry":{"type":"Point","coordinates":[-122.40798830908251,47.15685815854648]}},{"type":"Feature","properties":{"OBJECTID":2180,"NAME":"Frederickson Elementary","ADDRESS":"17218 74TH AVE E","CITY":"PUYALLUP","ZIP":"98375","DISTRICT":"BETHEL","DIST_NO":"403","TYPE":"ELEM","PHONE":"(253) 683-6300","WEBSITE":"https://www.bethelsd.org/fes","PRS_ID":404,"GRADE":"PRE-6","X_COORD":1184153.20640001,"Y_COORD":649286.0714},"geometry":{"type":"Point","coordinates":[-122.33215587302236,47.09926050375307]}},{"type":"Feature","properties":{"OBJECTID":2181,"NAME":"Frontier Middle School","ADDRESS":"22110 108TH AVE E","CITY":"GRAHAM","ZIP":"98338","DISTRICT":"BETHEL","DIST_NO":"403","TYPE":"MID","PHONE":"(253) 683-8300","WEBSITE":"https://www.bethelsd.org/fms","PRS_ID":15,"GRADE":"7-9","X_COORD":1194439.998,"Y_COORD":633132.42219999},"geometry":{"type":"Point","coordinates":[-122.28939164107037,47.05562909368104]}},{"type":"Feature","properties":{"OBJECTID":2182,"NAME":"Fruitland Elementary School","ADDRESS":"1515 S FRUITLAND","CITY":"PUYALLUP","ZIP":"98371","DISTRICT":"PUYALLUP","DIST_NO":"003","TYPE":"ELEM","PHONE":"(253) 841-8734","WEBSITE":"https://fru.puyallup.k12.wa.us/","PRS_ID":106,"GRADE":"K-6","X_COORD":1186734.41580001,"Y_COORD":677168.6177},"geometry":{"type":"Point","coordinates":[-122.32438377733011,47.17585157444409]}},{"type":"Feature","properties":{"OBJECTID":2183,"NAME":"GATES High School","ADDRESS":"813 132ND ST S","CITY":"TACOMA","ZIP":"98444","DISTRICT":"FRANKLIN PIERCE","DIST_NO":"402","TYPE":"HIGH","PHONE":"(253) 298-4000","WEBSITE":"http://gates.fpschools.org/","PRS_ID":261,"GRADE":"9-12","X_COORD":1156673.41859999,"Y_COORD":664063.7245},"geometry":{"type":"Point","coordinates":[-122.44392154597335,47.13796282653958]}},{"type":"Feature","properties":{"OBJECTID":2184,"NAME":"Geiger Montessori School","ADDRESS":"7401 S 8TH ST","CITY":"TACOMA","ZIP":"98465","DISTRICT":"TACOMA","DIST_NO":"010","TYPE":"ELEM","PHONE":"(253) 571-6800","WEBSITE":"https://www.tacomaschools.org/geiger/Pages/default.aspx","PRS_ID":157,"GRADE":"K-5","X_COORD":1134986.323,"Y_COORD":707072.6126},"geometry":{"type":"Point","coordinates":[-122.53549242294143,47.25434369561474]}},{"type":"Feature","properties":{"OBJECTID":2185,"NAME":"Giaudrone Middle School","ADDRESS":"4902 S ALASKA ST","CITY":"TACOMA","ZIP":"98408","DISTRICT":"TACOMA","DIST_NO":"010","TYPE":"MID","PHONE":"(253) 571-5811","WEBSITE":"https://www.tacomaschools.org/giaudrone/Pages/default.aspx","PRS_ID":327,"GRADE":"6-8","X_COORD":1153329.5324,"Y_COORD":691084.9589},"geometry":{"type":"Point","coordinates":[-122.46005116846784,47.21179837513079]}},{"type":"Feature","properties":{"OBJECTID":2186,"NAME":"Gig Harbor Academy","ADDRESS":"6820 32ND ST NW","CITY":"GIG HARBOR","ZIP":"98335","DISTRICT":"NOT APPLICABLE","DIST_NO":" ","TYPE":"PRIVATE","PHONE":"(253) 265-2150","WEBSITE":"http://www.gigharboracademy.org","PRS_ID":91,"GRADE":"K-6","X_COORD":1111832.461,"Y_COORD":719090.4558},"geometry":{"type":"Point","coordinates":[-122.63000106992673,47.28560482598165]}},{"type":"Feature","properties":{"OBJECTID":2187,"NAME":"Gig Harbor High School","ADDRESS":"5101 ROSEDALE ST NW","CITY":"GIG HARBOR","ZIP":"98335","DISTRICT":"PENINSULA","DIST_NO":"401","TYPE":"HIGH","PHONE":"(253) 530-1400","WEBSITE":"https://ghh.psd401.net/","PRS_ID":64,"GRADE":"9-12","X_COORD":1118248.311,"Y_COORD":735968.1762},"geometry":{"type":"Point","coordinates":[-122.6059753233779,47.33233232930814]}},{"type":"Feature","properties":{"OBJECTID":2188,"NAME":"Glacier Middle School","ADDRESS":"240 N C ST","CITY":"BUCKLEY","ZIP":"98321","DISTRICT":"WHITE RIVER","DIST_NO":"416","TYPE":"MID","PHONE":"(360) 829-3395","WEBSITE":"http://glacier.whiteriver.wednet.edu/","PRS_ID":214,"GRADE":"6-8","X_COORD":1261533.87019999,"Y_COORD":671724.33759999},"geometry":{"type":"Point","coordinates":[-122.02325359907809,47.165279735541624]}},{"type":"Feature","properties":{"OBJECTID":2189,"NAME":"Glacier View Junior High","ADDRESS":"12807 184TH ST E","CITY":"PUYALLUP","ZIP":"98374","DISTRICT":"PUYALLUP","DIST_NO":"003","TYPE":"JRHIGH","PHONE":"(253) 840-8922","WEBSITE":"https://gvjh.puyallup.k12.wa.us/","PRS_ID":391,"GRADE":"7-9","X_COORD":1202591.5985,"Y_COORD":644844.6444},"geometry":{"type":"Point","coordinates":[-122.25774295418631,47.08823643544077]}},{"type":"Feature","properties":{"OBJECTID":2190,"NAME":"Goodman Middle School","ADDRESS":"3701 38TH AVE NW","CITY":"GIG HARBOR","ZIP":"98335","DISTRICT":"PENINSULA","DIST_NO":"401","TYPE":"MID","PHONE":"(253) 530-1600","WEBSITE":"https://psd401.net/gms/","PRS_ID":66,"GRADE":"6-8","X_COORD":1121466.2921,"Y_COORD":721376.6825},"geometry":{"type":"Point","coordinates":[-122.59144283212896,47.292577247758885]}},{"type":"Feature","properties":{"OBJECTID":2191,"NAME":"Graham-Kapowsin High School","ADDRESS":"22100 108TH AVE E","CITY":"GRAHAM","ZIP":"98338","DISTRICT":"BETHEL","DIST_NO":"403","TYPE":"HIGH","PHONE":"(253) 683-6100","WEBSITE":"https://www.bethelsd.org/gkhs","PRS_ID":330,"GRADE":"9-12","X_COORD":1195119.17020001,"Y_COORD":634109.0733},"geometry":{"type":"Point","coordinates":[-122.28675628331277,47.058348442861664]}},{"type":"Feature","properties":{"OBJECTID":2192,"NAME":"Graham Elementary School","ADDRESS":"10026 204TH ST E","CITY":"GRAHAM","ZIP":"98338","DISTRICT":"BETHEL","DIST_NO":"403","TYPE":"ELEM","PHONE":"(253) 683-8500","WEBSITE":"https://www.bethelsd.org/ges","PRS_ID":5,"GRADE":"K-6","X_COORD":1192704.38699999,"Y_COORD":638184.95810001},"geometry":{"type":"Point","coordinates":[-122.29681475038926,47.06937059013916]}},{"type":"Feature","properties":{"OBJECTID":2193,"NAME":"Grant Center for the Expressive Arts","ADDRESS":"6501 S 10TH ST","CITY":"TACOMA","ZIP":"98465","DISTRICT":"TACOMA","DIST_NO":"010","TYPE":"ELEM","PHONE":"(253) 571-5400","WEBSITE":"https://www.tacomaschools.org/grant/Pages/default.aspx","PRS_ID":158,"GRADE":"K-5","X_COORD":1137953.8134,"Y_COORD":706566.0632},"geometry":{"type":"Point","coordinates":[-122.52349454411254,47.25316468288208]}},{"type":"Feature","properties":{"OBJECTID":2194,"NAME":"Gray Middle School","ADDRESS":"6229 S TYLER ST","CITY":"TACOMA","ZIP":"98409","DISTRICT":"TACOMA","DIST_NO":"010","TYPE":"MID","PHONE":"(253) 571-5200","WEBSITE":"https://www.tacomaschools.org/gray/Pages/default.aspx","PRS_ID":413,"GRADE":"6-8","X_COORD":1145461.83490001,"Y_COORD":687083.41599999},"geometry":{"type":"Point","coordinates":[-122.49129121404866,47.2002905221491]}},{"type":"Feature","properties":{"OBJECTID":2195,"NAME":"Harbor Christian Schools","ADDRESS":"6509 38TH AVE NW","CITY":"GIG HARBOR","ZIP":"98335","DISTRICT":"NOT APPLICABLE","DIST_NO":" ","TYPE":"PRIVATE","PHONE":"(253) 857-6242","WEBSITE":"http://www.harborchristianschools.org/","PRS_ID":346,"GRADE":"K-12","X_COORD":1122373.1041,"Y_COORD":730465.7291},"geometry":{"type":"Point","coordinates":[-122.58875974857274,47.317552921226]}},{"type":"Feature","properties":{"OBJECTID":2196,"NAME":"Harbor Heights Elementary School","ADDRESS":"4002 36TH ST NW","CITY":"GIG HARBOR","ZIP":"98335","DISTRICT":"PENINSULA","DIST_NO":"401","TYPE":"ELEM","PHONE":"(253) 530-1800","WEBSITE":"https://psd401.net/hhe/","PRS_ID":60,"GRADE":"K-6","X_COORD":1120959.18790001,"Y_COORD":721542.0157},"geometry":{"type":"Point","coordinates":[-122.59350325528062,47.292993490947055]}},{"type":"Feature","properties":{"OBJECTID":2197,"NAME":"Harbor Montessori School","ADDRESS":"5414 COMTE DR NW","CITY":"GIG HARBOR","ZIP":"98335","DISTRICT":"NOT APPLICABLE","DIST_NO":" ","TYPE":"PRIVATE","PHONE":"(253) 851-5722","WEBSITE":"http://www.harbormontessori.org","PRS_ID":81,"GRADE":"K-9","X_COORD":1116795.4209,"Y_COORD":731225.1789},"geometry":{"type":"Point","coordinates":[-122.6113203159337,47.319227198106745]}},{"type":"Feature","properties":{"OBJECTID":2198,"NAME":"Harbor Ridge Middle School","ADDRESS":"9010 PRENTICE AVE","CITY":"GIG HARBOR","ZIP":"98332","DISTRICT":"PENINSULA","DIST_NO":"401","TYPE":"MID","PHONE":"(253) 530-1900","WEBSITE":"https://psd401.net/hrm/","PRS_ID":67,"GRADE":"6-8","X_COORD":1121524.5588,"Y_COORD":739119.75319999},"geometry":{"type":"Point","coordinates":[-122.59310521325759,47.34120858580306]}},{"type":"Feature","properties":{"OBJECTID":2199,"NAME":"Harrison Preparatory School","ADDRESS":"9103 LAKEWOOD DR SW","CITY":"LAKEWOOD","ZIP":"98499","DISTRICT":"CLOVER PARK","DIST_NO":"400","TYPE":"HIGH","PHONE":"(253) 583-5418","WEBSITE":"https://harrisonprep.cloverpark.k12.wa.us/","PRS_ID":471,"GRADE":"9-12","X_COORD":1141407.5825,"Y_COORD":677816.40440001},"geometry":{"type":"Point","coordinates":[-122.5066468996115,47.174609419928835]}},{"type":"Feature","properties":{"OBJECTID":2200,"NAME":"Harvard Elementary School","ADDRESS":"1709 85TH ST E","CITY":"TACOMA","ZIP":"98445","DISTRICT":"FRANKLIN PIERCE","DIST_NO":"402","TYPE":"ELEM","PHONE":"(253) 298-4100","WEBSITE":"http://harvard.fpschools.org/","PRS_ID":50,"GRADE":"K-6","X_COORD":1166612.5416,"Y_COORD":679532.5184},"geometry":{"type":"Point","coordinates":[-122.40549827779435,47.18102667367248]}},{"type":"Feature","properties":{"OBJECTID":2201,"NAME":"Henderson Bay High School","ADDRESS":"8402 SKANSIE AVE","CITY":"GIG HARBOR","ZIP":"98332","DISTRICT":"PENINSULA","DIST_NO":"401","TYPE":"HIGH","PHONE":"(253) 530-1700","WEBSITE":"https://psd401.net/hbh/","PRS_ID":239,"GRADE":"9-12","X_COORD":1119003.0378,"Y_COORD":736171.6769},"geometry":{"type":"Point","coordinates":[-122.60295472835469,47.33294524230142]}},{"type":"Feature","properties":{"OBJECTID":2202,"NAME":"Heritage Christian School","ADDRESS":"5412 67TH AVE W","CITY":"UNIVERSITY PLACE","ZIP":"98467","DISTRICT":"NOT APPLICABLE","DIST_NO":" ","TYPE":"PRIVATE","PHONE":"(253) 564-6276","WEBSITE":"http://www.heritagecs.net","PRS_ID":82,"GRADE":"K-6","X_COORD":1136434.6981,"Y_COORD":690027.5572},"geometry":{"type":"Point","coordinates":[-122.5278975920165,47.2077293792685]}},{"type":"Feature","properties":{"OBJECTID":2203,"NAME":"Hillside Elementary School","ADDRESS":"61700 GARCIA BLVD","CITY":"JBLM","ZIP":"98433","DISTRICT":"CLOVER PARK","DIST_NO":"400","TYPE":"ELEM","PHONE":"(253) 583-5280","WEBSITE":"https://hillside.cloverpark.k12.wa.us/","PRS_ID":223,"GRADE":"K-6","X_COORD":1124957.0449,"Y_COORD":652620.13330001},"geometry":{"type":"Point","coordinates":[-122.57011037614856,47.10438463555571]}},{"type":"Feature","properties":{"OBJECTID":2204,"NAME":"Holy Rosary Bilingual Academy","ADDRESS":"504 S 30TH ST","CITY":"TACOMA","ZIP":"98402","DISTRICT":"NOT APPLICABLE","DIST_NO":" ","TYPE":"PRIVATE","PHONE":"(253) 272-7012","WEBSITE":"http://hrrsjda.org/wordpress/","PRS_ID":83,"GRADE":"K-6","X_COORD":1158647.1582,"Y_COORD":698690.9743},"geometry":{"type":"Point","coordinates":[-122.43941397913366,47.23300567874234]}},{"type":"Feature","properties":{"OBJECTID":2205,"NAME":"Hosanna Christian School","ADDRESS":"3114 45TH ST CT NW","CITY":"GIG HARBOR","ZIP":"98335","DISTRICT":"NOT APPLICABLE","DIST_NO":" ","TYPE":"PRIVATE","PHONE":"(253) 851-8952","WEBSITE":"http://www.hosannachristianschool.org/","PRS_ID":344,"GRADE":"K-6","X_COORD":1124065.78820001,"Y_COORD":723544.64229999},"geometry":{"type":"Point","coordinates":[-122.5812018522539,47.29870735959783]}},{"type":"Feature","properties":{"OBJECTID":2206,"NAME":"Hudtloff Middle School","ADDRESS":"8102 PHILLIPS RD SW","CITY":"LAKEWOOD","ZIP":"98498","DISTRICT":"CLOVER PARK","DIST_NO":"400","TYPE":"MID","PHONE":"(253) 583-5400","WEBSITE":"https://hudtloff.cloverpark.k12.wa.us/","PRS_ID":32,"GRADE":"6-8","X_COORD":1133201.6525,"Y_COORD":681250.0025},"geometry":{"type":"Point","coordinates":[-122.53998753416765,47.18344327119304]}},{"type":"Feature","properties":{"OBJECTID":2207,"NAME":"Hunt Elementary School","ADDRESS":"12801 144TH ST E","CITY":"PUYALLUP","ZIP":"98374","DISTRICT":"PUYALLUP","DIST_NO":"003","TYPE":"ELEM","PHONE":"(253) 841-8690","WEBSITE":"https://hun.puyallup.k12.wa.us/","PRS_ID":122,"GRADE":"K-6","X_COORD":1202819.6241,"Y_COORD":658955.6388},"geometry":{"type":"Point","coordinates":[-122.25809030138282,47.12693028355511]}},{"type":"Feature","properties":{"OBJECTID":2208,"NAME":"idea - School of Industrial Design, Engineering and Art","ADDRESS":"6701 S PARK AVE","CITY":"TACOMA","ZIP":"98408","DISTRICT":"TACOMA","DIST_NO":"010","TYPE":"HIGH","PHONE":"(253) 571-2555","WEBSITE":"https://www.tacomaschools.org/idea/Pages/default.aspx","PRS_ID":476,"GRADE":"9-12","X_COORD":1158035.4665,"Y_COORD":685225.76100001},"geometry":{"type":"Point","coordinates":[-122.44054210691424,47.196058065478034]}},{"type":"Feature","properties":{"OBJECTID":2209,"NAME":"Idlewild Elementary School","ADDRESS":"10806 IDLEWILD RD SW","CITY":"LAKEWOOD","ZIP":"98499","DISTRICT":"CLOVER PARK","DIST_NO":"400","TYPE":"ELEM","PHONE":"(253) 583-5290","WEBSITE":"https://idlewild.cloverpark.k12.wa.us/","PRS_ID":19,"GRADE":"K-6","X_COORD":1131490.9699,"Y_COORD":672194.6682},"geometry":{"type":"Point","coordinates":[-122.5459202561459,47.15850275899234]}},{"type":"Feature","properties":{"OBJECTID":2210,"NAME":"Imagination School","ADDRESS":"14824 C ST S","CITY":"TACOMA","ZIP":"98444","DISTRICT":"NOT APPLICABLE","DIST_NO":" ","TYPE":"ELEM","PHONE":"(253) 535-2522","WEBSITE":"http://www.imaginationschool.org/","PRS_ID":371,"GRADE":"PRE-6","X_COORD":1157860.3844,"Y_COORD":658367.3889},"geometry":{"type":"Point","coordinates":[-122.43859116684901,47.12242954933699]}},{"type":"Feature","properties":{"OBJECTID":2211,"NAME":"James Sales Elementary School","ADDRESS":"11213 SHERIDAN AVE S","CITY":"TACOMA","ZIP":"98444","DISTRICT":"FRANKLIN PIERCE","DIST_NO":"402","TYPE":"ELEM","PHONE":"(253) 298-4200","WEBSITE":"http://jamessales.fpschools.org/","PRS_ID":51,"GRADE":"K-6","X_COORD":1154897.90549999,"Y_COORD":670272.3338},"geometry":{"type":"Point","coordinates":[-122.45167073890016,47.15485997644401]}},{"type":"Feature","properties":{"OBJECTID":2212,"NAME":"Jason Lee Middle School","ADDRESS":"602 N SPRAGUE AVE","CITY":"TACOMA","ZIP":"98403","DISTRICT":"TACOMA","DIST_NO":"010","TYPE":"MID","PHONE":"(253) 571-7700","WEBSITE":"https://www.tacomaschools.org/jl/Pages/default.aspx","PRS_ID":194,"GRADE":"6-8","X_COORD":1152583.05230001,"Y_COORD":707388.5927},"geometry":{"type":"Point","coordinates":[-122.46468758638454,47.25643292858133]}},{"type":"Feature","properties":{"OBJECTID":2213,"NAME":"Jefferson Elementary School","ADDRESS":"4302 N 13TH ST","CITY":"TACOMA","ZIP":"98406","DISTRICT":"TACOMA","DIST_NO":"010","TYPE":"ELEM","PHONE":"(253) 571-4000","WEBSITE":"https://www.tacomaschools.org/jefferson/Pages/default.aspx","PRS_ID":160,"GRADE":"K-5","X_COORD":1145032.57449999,"Y_COORD":709188.49519999},"geometry":{"type":"Point","coordinates":[-122.49526663033899,47.260846500364615]}},{"type":"Feature","properties":{"OBJECTID":2214,"NAME":"Jennie Reed Elementary","ADDRESS":"1802 S 36TH ST","CITY":"TACOMA","ZIP":"98418","DISTRICT":"TACOMA","DIST_NO":"010","TYPE":"ELEM","PHONE":"(253) 571-6400","WEBSITE":"https://www.tacomaschools.org/reed/Pages/default.aspx","PRS_ID":171,"GRADE":"K-5","X_COORD":1153154.1275,"Y_COORD":696150.38789999},"geometry":{"type":"Point","coordinates":[-122.46126343984778,47.225669982602774]}},{"type":"Feature","properties":{"OBJECTID":2215,"NAME":"Kalles Junior High School","ADDRESS":"501 7TH AVE SE","CITY":"PUYALLUP","ZIP":"98372","DISTRICT":"PUYALLUP","DIST_NO":"003","TYPE":"JRHIGH","PHONE":"(253) 841-8729","WEBSITE":"https://kjh.puyallup.k12.wa.us/","PRS_ID":131,"GRADE":"7-9","X_COORD":1195649.4778,"Y_COORD":681077.92290001},"geometry":{"type":"Point","coordinates":[-122.2889026950724,47.187126823415014]}},{"type":"Feature","properties":{"OBJECTID":2216,"NAME":"Kapowsin Elementary","ADDRESS":"10412 264TH ST E","CITY":"GRAHAM","ZIP":"98338","DISTRICT":"BETHEL","DIST_NO":"403","TYPE":"ELEM","PHONE":"(253) 683-8600","WEBSITE":"https://www.bethelsd.org/kes","PRS_ID":6,"GRADE":"K-6","X_COORD":1193364.4712,"Y_COORD":618578.544},"geometry":{"type":"Point","coordinates":[-122.29237877575508,47.01566767745381]}},{"type":"Feature","properties":{"OBJECTID":2217,"NAME":"Karshner Elementary School","ADDRESS":"1328 8TH AVE NW","CITY":"PUYALLUP","ZIP":"98371","DISTRICT":"PUYALLUP","DIST_NO":"003","TYPE":"ELEM","PHONE":"(253) 841-8736","WEBSITE":"https://kar.puyallup.k12.wa.us/","PRS_ID":108,"GRADE":"K-6","X_COORD":1189924.0931,"Y_COORD":684955.2348},"geometry":{"type":"Point","coordinates":[-122.31228102167539,47.197396247776794]}},{"type":"Feature","properties":{"OBJECTID":2218,"NAME":"Keithley Middle School","ADDRESS":"12324 12TH AVE S","CITY":"TACOMA","ZIP":"98444","DISTRICT":"FRANKLIN PIERCE","DIST_NO":"402","TYPE":"MID","PHONE":"(253) 298-4300","WEBSITE":"http://keithley.fpschools.org/","PRS_ID":55,"GRADE":"6-8","X_COORD":1154679.7801,"Y_COORD":666510.63060001},"geometry":{"type":"Point","coordinates":[-122.45217302579724,47.14453464692891]}},{"type":"Feature","properties":{"OBJECTID":2219,"NAME":"Key Peninsula Middle School","ADDRESS":"5510 KEY PENINSULA HWY NW","CITY":"LAKEBAY","ZIP":"98349","DISTRICT":"PENINSULA","DIST_NO":"401","TYPE":"MID","PHONE":"(253) 530-4200","WEBSITE":"https://psd401.net/kpm/","PRS_ID":68,"GRADE":"6-8","X_COORD":1079982.98729999,"Y_COORD":727567.3627},"geometry":{"type":"Point","coordinates":[-122.75925277882914,47.306407026505646]}},{"type":"Feature","properties":{"OBJECTID":2220,"NAME":"Kopachuck Middle School","ADDRESS":"10414 56TH ST NW","CITY":"GIG HARBOR","ZIP":"98335","DISTRICT":"PENINSULA","DIST_NO":"401","TYPE":"MID","PHONE":"(253) 530-4100","WEBSITE":"https://psd401.net/kms/","PRS_ID":69,"GRADE":"6-8","X_COORD":1100385.19329999,"Y_COORD":726958.65270001},"geometry":{"type":"Point","coordinates":[-122.67698106374638,47.30631159531853]}},{"type":"Feature","properties":{"OBJECTID":2221,"NAME":"Lake Louise Elementary School","ADDRESS":"11014 HOLDEN RD SW","CITY":"LAKEWOOD","ZIP":"98498","DISTRICT":"CLOVER PARK","DIST_NO":"400","TYPE":"ELEM","PHONE":"(253) 583-5310","WEBSITE":"https://lakelouise.cloverpark.k12.wa.us/","PRS_ID":21,"GRADE":"K-6","X_COORD":1125530.6371,"Y_COORD":671755.0677},"geometry":{"type":"Point","coordinates":[-122.56982395221563,47.15687158994821]}},{"type":"Feature","properties":{"OBJECTID":2222,"NAME":"Lake Tapps Elementary School","ADDRESS":"1320 178TH AVE E","CITY":"LAKE TAPPS","ZIP":"98391","DISTRICT":"DIERINGER","DIST_NO":"343","TYPE":"ELEM","PHONE":"(253) 862-6600","WEBSITE":"https://ltes.dieringer.wednet.edu/","PRS_ID":36,"GRADE":"K-6","X_COORD":1220131.9061,"Y_COORD":701999.1772},"geometry":{"type":"Point","coordinates":[-122.19226780201876,47.245953664910054]}},{"type":"Feature","properties":{"OBJECTID":2223,"NAME":"Lake Tapps Montessori","ADDRESS":"4118 WEST TAPPS DR E","CITY":"SUMNER","ZIP":"98391","DISTRICT":"NOT APPLICABLE","DIST_NO":" ","TYPE":"PRIVATE","PHONE":"(253) 862-6556","WEBSITE":"http://www.laketappsmontessori.com/","PRS_ID":370,"GRADE":"K-1","X_COORD":1219626.7501,"Y_COORD":692202.8052},"geometry":{"type":"Point","coordinates":[-122.193454441734,47.21907162388708]}},{"type":"Feature","properties":{"OBJECTID":2224,"NAME":"Lakeland Hills Elementary School","ADDRESS":"1020 EVERGREEN WAY SE","CITY":"AUBURN","ZIP":"98092","DISTRICT":"AUBURN","DIST_NO":"408","TYPE":"ELEM","PHONE":"(253) 876-7711","WEBSITE":"https://www.auburn.wednet.edu/Domain/25","PRS_ID":384,"GRADE":"K-6","X_COORD":1214466.2088,"Y_COORD":705133.00220001},"geometry":{"type":"Point","coordinates":[-122.21534783980816,47.25420803621124]}},{"type":"Feature","properties":{"OBJECTID":2225,"NAME":"Lakeridge Middle School","ADDRESS":"5909 MYERS RD E","CITY":"BONNEY LAKE","ZIP":"98391","DISTRICT":"SUMNER","DIST_NO":"320","TYPE":"MID","PHONE":"(253) 891-5100","WEBSITE":"https://www.sumnersd.org/lms","PRS_ID":143,"GRADE":"7-9","X_COORD":1220410.3664,"Y_COORD":686224.88789999},"geometry":{"type":"Point","coordinates":[-122.18978645486906,47.20273180532866]}},{"type":"Feature","properties":{"OBJECTID":2226,"NAME":"Lakes High School","ADDRESS":"10320 FARWEST DR SW","CITY":"LAKEWOOD","ZIP":"98498","DISTRICT":"CLOVER PARK","DIST_NO":"400","TYPE":"HIGH","PHONE":"(253) 583-5550","WEBSITE":"https://lakes.cloverpark.k12.wa.us/","PRS_ID":31,"GRADE":"9-12","X_COORD":1123844.5121,"Y_COORD":673874.51980001},"geometry":{"type":"Point","coordinates":[-122.57682327160175,47.16255908988386]}},{"type":"Feature","properties":{"OBJECTID":2227,"NAME":"Lakeview Elementary School","ADDRESS":"10501 47TH AVE SW","CITY":"LAKEWOOD","ZIP":"98499","DISTRICT":"CLOVER PARK","DIST_NO":"400","TYPE":"ELEM","PHONE":"(253) 583-5320","WEBSITE":"https://lakeview.cloverpark.k12.wa.us/","PRS_ID":22,"GRADE":"K-6","X_COORD":1143404.5396,"Y_COORD":672951.25220001},"geometry":{"type":"Point","coordinates":[-122.49812455760834,47.16141369993422]}},{"type":"Feature","properties":{"OBJECTID":2228,"NAME":"Lakewood Lutheran School","ADDRESS":"10202 112TH ST SW","CITY":"LAKEWOOD","ZIP":"98498","DISTRICT":"NOT APPLICABLE","DIST_NO":" ","TYPE":"PRIVATE","PHONE":"(253) 584-4615","WEBSITE":"https://lakewoodlutheran.net/","PRS_ID":84,"GRADE":"K-6","X_COORD":1124898.6428,"Y_COORD":671249.41249999},"geometry":{"type":"Point","coordinates":[-122.57230998553575,47.155440193295824]}},{"type":"Feature","properties":{"OBJECTID":2229,"NAME":"Larchmont Elementary School","ADDRESS":"8601 E B ST","CITY":"TACOMA","ZIP":"98445","DISTRICT":"TACOMA","DIST_NO":"010","TYPE":"ELEM","PHONE":"(253) 571-6200","WEBSITE":"https://www.tacomaschools.org/larchmont/Pages/default.aspx","PRS_ID":161,"GRADE":"K-5","X_COORD":1160700.05490001,"Y_COORD":678731.01970001},"geometry":{"type":"Point","coordinates":[-122.42918828240634,47.1784358224845]}},{"type":"Feature","properties":{"OBJECTID":2230,"NAME":"Liberty Middle School","ADDRESS":"7319 EUSTIS HUNT RD E","CITY":"SPANAWAY","ZIP":"98387","DISTRICT":"BETHEL","DIST_NO":"403","TYPE":"MID","PHONE":"(253) 683-6500","WEBSITE":"https://www.bethelsd.org/lms","PRS_ID":407,"GRADE":"7-9","X_COORD":1184685.69660001,"Y_COORD":638248.2648},"geometry":{"type":"Point","coordinates":[-122.3289908160411,47.069038842130574]}},{"type":"Feature","properties":{"OBJECTID":2231,"NAME":"Liberty Ridge Elementary School","ADDRESS":"12202 209TH AVE CT E","CITY":"BONNEY LAKE","ZIP":"98391","DISTRICT":"SUMNER","DIST_NO":"320","TYPE":"ELEM","PHONE":"(253) 891-4800","WEBSITE":"https://www.sumnersd.org/lre","PRS_ID":138,"GRADE":"K-6","X_COORD":1229459.41869999,"Y_COORD":664849.0223},"geometry":{"type":"Point","coordinates":[-122.15159022384923,47.144663405020566]}},{"type":"Feature","properties":{"OBJECTID":2232,"NAME":"Life Christian Academy","ADDRESS":"1717 S UNION AVE","CITY":"TACOMA","ZIP":"98405","DISTRICT":"NOT APPLICABLE","DIST_NO":" ","TYPE":"PRIVATE","PHONE":"(253) 756-2199","WEBSITE":"https://www.wherelifehappens.org/","PRS_ID":85,"GRADE":"K-12","X_COORD":1148293.2994,"Y_COORD":703246.5477},"geometry":{"type":"Point","coordinates":[-122.48153779576596,47.24478622896622]}},{"type":"Feature","properties":{"OBJECTID":2233,"NAME":"Lighthouse Christian School","ADDRESS":"3008 36TH ST NW","CITY":"GIG HARBOR","ZIP":"98335","DISTRICT":"NOT APPLICABLE","DIST_NO":" ","TYPE":"PRIVATE","PHONE":"(253) 858-5962","WEBSITE":"http://lcschool.org/","PRS_ID":334,"GRADE":"K-6","X_COORD":1124105.47229999,"Y_COORD":720289.66760001},"geometry":{"type":"Point","coordinates":[-122.58069597718725,47.28978945062655]}},{"type":"Feature","properties":{"OBJECTID":2234,"NAME":"Lincoln High School","ADDRESS":"701 S 37TH ST","CITY":"TACOMA","ZIP":"98418","DISTRICT":"TACOMA","DIST_NO":"010","TYPE":"HIGH","PHONE":"(253) 571-6700","WEBSITE":"https://www.tacomaschools.org/lincoln/Pages/default.aspx","PRS_ID":186,"GRADE":"9-12","X_COORD":1157902.17219999,"Y_COORD":696620.6382},"geometry":{"type":"Point","coordinates":[-122.44220660854482,47.22728094217711]}},{"type":"Feature","properties":{"OBJECTID":2235,"NAME":"Lister Elementary","ADDRESS":"2106 E 44TH ST","CITY":"TACOMA","ZIP":"98404","DISTRICT":"TACOMA","DIST_NO":"010","TYPE":"ELEM","PHONE":"(253) 571-2900","WEBSITE":"https://www.tacomaschools.org/lister/Pages/default.aspx","PRS_ID":162,"GRADE":"K-5","X_COORD":1168080.2418,"Y_COORD":692198.6169},"geometry":{"type":"Point","coordinates":[-122.4008252445601,47.215840457253705]}},{"type":"Feature","properties":{"OBJECTID":2236,"NAME":"Lochburn Middle School","ADDRESS":"5431 STEILACOOM BLVD SW","CITY":"LAKEWOOD","ZIP":"98499","DISTRICT":"CLOVER PARK","DIST_NO":"400","TYPE":"MID","PHONE":"(253) 583-5420","WEBSITE":"https://lochburn.cloverpark.k12.wa.us/","PRS_ID":34,"GRADE":"6-8","X_COORD":1140110.07160001,"Y_COORD":679425.8576},"geometry":{"type":"Point","coordinates":[-122.51202732936629,47.178930068012676]}},{"type":"Feature","properties":{"OBJECTID":2237,"NAME":"Lowell Elementary","ADDRESS":"810 MR DAHL DR","CITY":"TACOMA","ZIP":"98403","DISTRICT":"TACOMA","DIST_NO":"010","TYPE":"ELEM","PHONE":"(253) 571-7200","WEBSITE":"https://www.tacomaschools.org/lowell/Pages/default.aspx","PRS_ID":163,"GRADE":"K-5","X_COORD":1152398.9205,"Y_COORD":711403.5071},"geometry":{"type":"Point","coordinates":[-122.46583175413734,47.267424418878115]}},{"type":"Feature","properties":{"OBJECTID":2238,"NAME":"Manitou Park Elementary","ADDRESS":"4330 S 66TH ST","CITY":"TACOMA","ZIP":"98409","DISTRICT":"TACOMA","DIST_NO":"010","TYPE":"ELEM","PHONE":"(253) 571-5300","WEBSITE":"https://www.tacomaschools.org/mp/Pages/default.aspx","PRS_ID":165,"GRADE":"K-5","X_COORD":1144545.4375,"Y_COORD":685848.8414},"geometry":{"type":"Point","coordinates":[-122.49485088301063,47.19684327373533]}},{"type":"Feature","properties":{"OBJECTID":2239,"NAME":"Mann Elementary School","ADDRESS":"1002 S 52ND ST","CITY":"TACOMA","ZIP":"98408","DISTRICT":"TACOMA","DIST_NO":"010","TYPE":"ELEM","PHONE":"(253) 571-6300","WEBSITE":"https://www.tacomaschools.org/mann/Pages/default.aspx","PRS_ID":166,"GRADE":"K-5","X_COORD":1156348.1812,"Y_COORD":690036.6239},"geometry":{"type":"Point","coordinates":[-122.44780485066215,47.209130033260344]}},{"type":"Feature","properties":{"OBJECTID":2240,"NAME":"Mann Middle School","ADDRESS":"11509 HOLDEN RD SW","CITY":"LAKEWOOD","ZIP":"98498","DISTRICT":"CLOVER PARK","DIST_NO":"400","TYPE":"MID","PHONE":"(253) 583-5440","WEBSITE":"https://mann.cloverpark.k12.wa.us/","PRS_ID":33,"GRADE":"6-8","X_COORD":1126499.4074,"Y_COORD":670488.8291},"geometry":{"type":"Point","coordinates":[-122.565798027554,47.153470690781916]}},{"type":"Feature","properties":{"OBJECTID":2241,"NAME":"Maple Lawn Elementary School","ADDRESS":"230 WOOD AVE","CITY":"SUMNER","ZIP":"98390","DISTRICT":"SUMNER","DIST_NO":"320","TYPE":"ELEM","PHONE":"(253) 891-4400","WEBSITE":"https://www.sumnersd.org/mle","PRS_ID":139,"GRADE":"K-6","X_COORD":1209662.4267,"Y_COORD":683404.013},"geometry":{"type":"Point","coordinates":[-122.232764987302,47.19436032649262]}},{"type":"Feature","properties":{"OBJECTID":2242,"NAME":"Maplewood Elementary School","ADDRESS":"1110 W PIONEER","CITY":"PUYALLUP","ZIP":"98371","DISTRICT":"PUYALLUP","DIST_NO":"003","TYPE":"ELEM","PHONE":"(253) 841-8737","WEBSITE":"https://map.puyallup.k12.wa.us/","PRS_ID":109,"GRADE":"K-6","X_COORD":1190608.10950001,"Y_COORD":681971.09280001},"geometry":{"type":"Point","coordinates":[-122.30925495036641,47.18925977639424]}},{"type":"Feature","properties":{"OBJECTID":2243,"NAME":"Mary Lyon Elementary School","ADDRESS":"3702 E MCKINLEY AVE","CITY":"TACOMA","ZIP":"98404","DISTRICT":"TACOMA","DIST_NO":"010","TYPE":"ELEM","PHONE":"(253) 571-4800","WEBSITE":"https://www.tacomaschools.org/lyon/Pages/default.aspx","PRS_ID":164,"GRADE":"K-5","X_COORD":1163040.34280001,"Y_COORD":695275.08140001},"geometry":{"type":"Point","coordinates":[-122.42140087657489,47.223937937115885]}},{"type":"Feature","properties":{"OBJECTID":2244,"NAME":"Mason Middle School","ADDRESS":"3901 N 28TH ST","CITY":"TACOMA","ZIP":"98407","DISTRICT":"TACOMA","DIST_NO":"010","TYPE":"MID","PHONE":"(253) 571-7000","WEBSITE":"https://www.tacomaschools.org/mason/Pages/default.aspx","PRS_ID":195,"GRADE":"6-8","X_COORD":1146023.6419,"Y_COORD":713770.8529},"geometry":{"type":"Point","coordinates":[-122.49174253919468,47.273474341174264]}},{"type":"Feature","properties":{"OBJECTID":2245,"NAME":"McCarver Elementary","ADDRESS":"2111 S J ST","CITY":"TACOMA","ZIP":"98405","DISTRICT":"TACOMA","DIST_NO":"010","TYPE":"ELEM","PHONE":"(253) 571-4900","WEBSITE":"https://www.tacomaschools.org/mccarver/Pages/default.aspx","PRS_ID":167,"GRADE":"K-5","X_COORD":1156853.079,"Y_COORD":701502.90889999},"geometry":{"type":"Point","coordinates":[-122.44691265445164,47.24059158360966]}},{"type":"Feature","properties":{"OBJECTID":2246,"NAME":"McKenna Elementary School","ADDRESS":"35120 SR 507 S","CITY":"MCKENNA","ZIP":"98558","DISTRICT":"YELM","DIST_NO":"002","TYPE":"ELEM","PHONE":"(360) 458-2400","WEBSITE":"https://www.ycs.wednet.edu/mckenna","PRS_ID":336,"GRADE":"K-6","X_COORD":1127175.4778,"Y_COORD":592083.39740001},"geometry":{"type":"Point","coordinates":[-122.55487289110086,46.938616248179684]}},{"type":"Feature","properties":{"OBJECTID":2247,"NAME":"Meeker Elementary School","ADDRESS":"409 5TH ST SW","CITY":"PUYALLUP","ZIP":"98371","DISTRICT":"PUYALLUP","DIST_NO":"003","TYPE":"ELEM","PHONE":"(253) 841-8738","WEBSITE":"https://mee.puyallup.k12.wa.us/","PRS_ID":110,"GRADE":"K-6","X_COORD":1193471.2517,"Y_COORD":681605.3726},"geometry":{"type":"Point","coordinates":[-122.29770907677343,47.188436804269]}},{"type":"Feature","properties":{"OBJECTID":2248,"NAME":"Meeker Middle School","ADDRESS":"4402 NASSAU AVE NE","CITY":"TACOMA","ZIP":"98422","DISTRICT":"TACOMA","DIST_NO":"010","TYPE":"MID","PHONE":"(253) 571-6500","WEBSITE":"https://www.tacomaschools.org/meeker/Pages/default.aspx","PRS_ID":197,"GRADE":"6-8","X_COORD":1168416.1953,"Y_COORD":720971.5324},"geometry":{"type":"Point","coordinates":[-122.40226577036647,47.294725145119955]}},{"type":"Feature","properties":{"OBJECTID":2249,"NAME":"Meriwether Elementary School","ADDRESS":"10285 COMPASS AVE","CITY":"JBLM N","ZIP":"98433","DISTRICT":"CLOVER PARK","DIST_NO":"400","TYPE":"ELEM","PHONE":"(253) 583-5200","WEBSITE":"https://meriwether.cloverpark.k12.wa.us/","PRS_ID":459,"GRADE":"K-6","X_COORD":1120396.5016,"Y_COORD":664730.59550001},"geometry":{"type":"Point","coordinates":[-122.58970544033834,47.13724772787394]}},{"type":"Feature","properties":{"OBJECTID":2250,"NAME":"Midland Elementary School","ADDRESS":"2300 105TH ST E","CITY":"TACOMA","ZIP":"98445","DISTRICT":"FRANKLIN PIERCE","DIST_NO":"402","TYPE":"ELEM","PHONE":"(253) 298-4500","WEBSITE":"http://midland.fpschools.org/","PRS_ID":321,"GRADE":"K-6","X_COORD":1168081.3796,"Y_COORD":671861.59},"geometry":{"type":"Point","coordinates":[-122.39885080568725,47.16009820348827]}},{"type":"Feature","properties":{"OBJECTID":2251,"NAME":"Minter Creek Elementary School","ADDRESS":"12617 118TH AVE NW","CITY":"GIG HARBOR","ZIP":"98329","DISTRICT":"PENINSULA","DIST_NO":"401","TYPE":"ELEM","PHONE":"(253) 530-4300","WEBSITE":"https://psd401.net/mes/","PRS_ID":61,"GRADE":"K-6","X_COORD":1096983.67829999,"Y_COORD":751303.04369999},"geometry":{"type":"Point","coordinates":[-122.69341456447896,47.37276937828905]}},{"type":"Feature","properties":{"OBJECTID":2252,"NAME":"Montessori In Motion","ADDRESS":"7323 27TH ST W","CITY":"UNIVERSITY PLACE","ZIP":"98466","DISTRICT":"NOT APPLICABLE","DIST_NO":" ","TYPE":"PRIVATE","PHONE":"(253) 565-3080","WEBSITE":"https://www.montessoriinmotion.org/","PRS_ID":375,"GRADE":"K-6","X_COORD":1134910.271,"Y_COORD":700648.17460001},"geometry":{"type":"Point","coordinates":[-122.53513115968391,47.23673052074615]}},{"type":"Feature","properties":{"OBJECTID":2253,"NAME":"Mount Tahoma High School","ADDRESS":"4634 S 74TH ST","CITY":"TACOMA","ZIP":"98409","DISTRICT":"TACOMA","DIST_NO":"010","TYPE":"HIGH","PHONE":"(253) 571-3800","WEBSITE":"https://www.tacomaschools.org/mt/Pages/default.aspx","PRS_ID":326,"GRADE":"9-12","X_COORD":1142809.3655,"Y_COORD":682532.97840001},"geometry":{"type":"Point","coordinates":[-122.50149355592184,47.18763445922486]}},{"type":"Feature","properties":{"OBJECTID":2254,"NAME":"Mountain Meadow Elementary School","ADDRESS":"11812 MUNDY LOSS RD E","CITY":"BUCKLEY","ZIP":"98321","DISTRICT":"WHITE RIVER","DIST_NO":"416","TYPE":"ELEM","PHONE":"(360) 829-3356","WEBSITE":"http://mm.whiteriver.wednet.edu/","PRS_ID":210,"GRADE":"K-6","X_COORD":1252147.9497,"Y_COORD":666321.2348},"geometry":{"type":"Point","coordinates":[-122.06054913938509,47.14996557294161]}},{"type":"Feature","properties":{"OBJECTID":2255,"NAME":"Mountain View Elementary School","ADDRESS":"3411 119TH AVE E","CITY":"EDGEWOOD","ZIP":"98372","DISTRICT":"EDGEWOOD","DIST_NO":"003","TYPE":"ELEM","PHONE":"(253) 841-8739","WEBSITE":"https://mtv.puyallup.k12.wa.us/","PRS_ID":111,"GRADE":"K-6","X_COORD":1200417.7261,"Y_COORD":695059.4276},"geometry":{"type":"Point","coordinates":[-122.27099316570177,47.225745212484924]}},{"type":"Feature","properties":{"OBJECTID":2256,"NAME":"Mountain View Middle School","ADDRESS":"10921 199TH AVE CT E","CITY":"BONNEY LAKE","ZIP":"98391","DISTRICT":"SUMNER","DIST_NO":"320","TYPE":"MID","PHONE":"(253) 891-5200","WEBSITE":"https://www.sumnersd.org/mms","PRS_ID":270,"GRADE":"7-9","X_COORD":1226749.973,"Y_COORD":669237.96340001},"geometry":{"type":"Point","coordinates":[-122.16284775743199,47.156538104800056]}},{"type":"Feature","properties":{"OBJECTID":2257,"NAME":"Naches Trail Elementary School","ADDRESS":"15305 WALLER RD E","CITY":"TACOMA","ZIP":"98446","DISTRICT":"BETHEL","DIST_NO":"403","TYPE":"ELEM","PHONE":"(253) 683-8700","WEBSITE":"https://www.bethelsd.org/ntes","PRS_ID":236,"GRADE":"K-6","X_COORD":1170549.51620001,"Y_COORD":656311.1787},"geometry":{"type":"Point","coordinates":[-122.38743674398533,47.117637221483086]}},{"type":"Feature","properties":{"OBJECTID":2258,"NAME":"Narrows View Intermediate School","ADDRESS":"7813 44TH ST W","CITY":"UNIVERSITY PLACE","ZIP":"98466","DISTRICT":"UNIVERSITY PLACE","DIST_NO":"083","TYPE":"INTER","PHONE":"(253) 566-5630","WEBSITE":"https://nvi.upsd83.org/","PRS_ID":269,"GRADE":"5-7","X_COORD":1133103.9567,"Y_COORD":694230.0566},"geometry":{"type":"Point","coordinates":[-122.54173131218514,47.21901197790051]}},{"type":"Feature","properties":{"OBJECTID":2259,"NAME":"Nelson Elementary","ADDRESS":"22109 108TH AVE E","CITY":"GRAHAM","ZIP":"98338","DISTRICT":"BETHEL","DIST_NO":"403","TYPE":"ELEM","PHONE":"(253) 683-6400","WEBSITE":"https://www.bethelsd.org/nes","PRS_ID":406,"GRADE":"PRE-6","X_COORD":1195378.3748,"Y_COORD":632810.37},"geometry":{"type":"Point","coordinates":[-122.28559863244368,47.0548046039769]}},{"type":"Feature","properties":{"OBJECTID":2260,"NAME":"North Star Elementary School","ADDRESS":"7719 224TH ST E","CITY":"GRAHAM","ZIP":"98338","DISTRICT":"BETHEL","DIST_NO":"403","TYPE":"ELEM","PHONE":"(253) 683-8800","WEBSITE":"https://www.bethelsd.org/nses","PRS_ID":279,"GRADE":"K-6","X_COORD":1184788.8744,"Y_COORD":633184.5403},"geometry":{"type":"Point","coordinates":[-122.32810595858426,47.05516520267755]}},{"type":"Feature","properties":{"OBJECTID":2261,"NAME":"North Tapps Middle School","ADDRESS":"20029 12TH ST E","CITY":"LAKE TAPPS","ZIP":"98391","DISTRICT":"DIERINGER","DIST_NO":"343","TYPE":"MID","PHONE":"(253) 862-2776","WEBSITE":"https://ntms.dieringer.wednet.edu/","PRS_ID":37,"GRADE":"6-8","X_COORD":1227972.41850001,"Y_COORD":702813.78049999},"geometry":{"type":"Point","coordinates":[-122.16077661231238,47.24864339154096]}},{"type":"Feature","properties":{"OBJECTID":2262,"NAME":"Northeast Tacoma Elementary School","ADDRESS":"5412 29TH ST NE","CITY":"TACOMA","ZIP":"98422","DISTRICT":"TACOMA","DIST_NO":"010","TYPE":"ELEM","PHONE":"(253) 571-6933","WEBSITE":"https://www.tacomaschools.org/nt/Pages/default.aspx","PRS_ID":169,"GRADE":"K-5","X_COORD":1175320.0202,"Y_COORD":716101.0044},"geometry":{"type":"Point","coordinates":[-122.37398611374081,47.28182887237992]}},{"type":"Feature","properties":{"OBJECTID":2263,"NAME":"Northwest Christian School","ADDRESS":"904 SHAW RD","CITY":"PUYALLUP","ZIP":"98372","DISTRICT":"NOT APPLICABLE","DIST_NO":" ","TYPE":"PRIVATE","PHONE":"(253) 845-5722","WEBSITE":"https://www.nwchristianschool.org/","PRS_ID":88,"GRADE":"K-6","X_COORD":1203154.67910001,"Y_COORD":679423.5763},"geometry":{"type":"Point","coordinates":[-122.25857770988753,47.1830548955085]}},{"type":"Feature","properties":{"OBJECTID":2264,"NAME":"Northwest School of Innovative Learning","ADDRESS":"1819 E 72ND ST","CITY":"TACOMA","ZIP":"98404","DISTRICT":"NOT APPLICABLE","DIST_NO":" ","TYPE":"PRIVATE","PHONE":"(253) 272-8980","WEBSITE":"https://www.northwestlearning.org/","PRS_ID":435,"GRADE":"K-6","X_COORD":1166694.2172,"Y_COORD":684464.78929999},"geometry":{"type":"Point","coordinates":[-122.40564907528594,47.19455106101243]}},{"type":"Feature","properties":{"OBJECTID":2265,"NAME":"Northwood Elementary School","ADDRESS":"9805 24TH ST E","CITY":"EDGEWOOD","ZIP":"98371","DISTRICT":"EDGEWOOD","DIST_NO":"003","TYPE":"ELEM","PHONE":"(253) 841-8740","WEBSITE":"https://nor.puyallup.k12.wa.us/","PRS_ID":112,"GRADE":"K-6","X_COORD":1193818.858,"Y_COORD":699722.0707},"geometry":{"type":"Point","coordinates":[-122.29797215780533,47.23811614180581]}},{"type":"Feature","properties":{"OBJECTID":2266,"NAME":"Oak Grove Elementary","ADDRESS":"8805 STEILACOOM BLVD SW","CITY":"LAKEWOOD","ZIP":"98498","DISTRICT":"CLOVER PARK","DIST_NO":"400","TYPE":"ELEM","PHONE":"(253) 583-5415","WEBSITE":"http://www.cloverpark.k12.wa.us/Dept/CommunityRelations/NewsandPubsFiles/AtAGlance.aspx","PRS_ID":23,"GRADE":"K-6","X_COORD":1128378.95029999,"Y_COORD":680616.12090001},"geometry":{"type":"Point","coordinates":[-122.55930882868479,47.18136237150565]}},{"type":"Feature","properties":{"OBJECTID":2267,"NAME":"Oakbrook Elementary School","ADDRESS":"7802 83RD AVE SW","CITY":"LAKEWOOD","ZIP":"98498","DISTRICT":"CLOVER PARK","DIST_NO":"400","TYPE":"ELEM","PHONE":"(253) 583-5330","WEBSITE":"https://oakbrook.cloverpark.k12.wa.us/","PRS_ID":24,"GRADE":"K-6","X_COORD":1131000.3892,"Y_COORD":682184.6991},"geometry":{"type":"Point","coordinates":[-122.54893453706698,47.18584867883712]}},{"type":"Feature","properties":{"OBJECTID":2268,"NAME":"Oakland High School","ADDRESS":"3319 S ADAMS ST","CITY":"TACOMA","ZIP":"98409","DISTRICT":"TACOMA","DIST_NO":"010","TYPE":"HIGH","PHONE":"(253) 571-5100","WEBSITE":"https://www.tacomaschools.org/oakland/Pages/default.aspx","PRS_ID":262,"GRADE":"9-12","X_COORD":1147177.9269,"Y_COORD":697898.61130001},"geometry":{"type":"Point","coordinates":[-122.4854850298195,47.23005167682214]}},{"type":"Feature","properties":{"OBJECTID":2269,"NAME":"Orting High School","ADDRESS":"320 WASHINGTON AVE N","CITY":"ORTING","ZIP":"98360","DISTRICT":"ORTING","DIST_NO":"344","TYPE":"HIGH","PHONE":"(360) 893-2246","WEBSITE":"https://www.ortingschools.org/domain/51","PRS_ID":231,"GRADE":"9-12","X_COORD":1214933.3135,"Y_COORD":649998.9092},"geometry":{"type":"Point","coordinates":[-122.20865839003658,47.1031085374963]}},{"type":"Feature","properties":{"OBJECTID":2270,"NAME":"Orting Middle School","ADDRESS":"111 WHITEHAWK BLVD NW","CITY":"ORTING","ZIP":"98360","DISTRICT":"ORTING","DIST_NO":"344","TYPE":"MID","PHONE":"(360) 893-3565","WEBSITE":"https://www.ortingschools.org/domain/52","PRS_ID":56,"GRADE":"6-8","X_COORD":1212917.8766,"Y_COORD":649987.44670001},"geometry":{"type":"Point","coordinates":[-122.21674844118067,47.10295713904007]}},{"type":"Feature","properties":{"OBJECTID":2271,"NAME":"Orting Primary School","ADDRESS":"316 WASHINGTON AVE N","CITY":"ORTING","ZIP":"98360","DISTRICT":"ORTING","DIST_NO":"344","TYPE":"ELEM","PHONE":"(360) 893-2248","WEBSITE":"https://www.ortingschools.org/domain/53","PRS_ID":230,"GRADE":"K-6","X_COORD":1215115.62019999,"Y_COORD":649206.1012},"geometry":{"type":"Point","coordinates":[-122.2078575855146,47.10094614734029]}},{"type":"Feature","properties":{"OBJECTID":2272,"NAME":"Pacific Lutheran University (PLU)","ADDRESS":"12180 PARK AVE S","CITY":"TACOMA","ZIP":"98447","DISTRICT":"NOT APPLICABLE","DIST_NO":" ","TYPE":"UNIVERSITY","PHONE":"(253) 535-7411","WEBSITE":"https://www.plu.edu/","PRS_ID":251,"GRADE":"Higher Education","X_COORD":1156528.8096,"Y_COORD":666279.94599999},"geometry":{"type":"Point","coordinates":[-122.44472195330947,47.14402757551336]}},{"type":"Feature","properties":{"OBJECTID":2273,"NAME":"Park Lodge Elementary School","ADDRESS":"6300 100TH ST SW","CITY":"LAKEWOOD","ZIP":"98499","DISTRICT":"CLOVER PARK","DIST_NO":"400","TYPE":"ELEM","PHONE":"(253) 583-5350","WEBSITE":"https://parklodge.cloverpark.k12.wa.us/","PRS_ID":281,"GRADE":"K-6","X_COORD":1137554.0518,"Y_COORD":674726.44850001},"geometry":{"type":"Point","coordinates":[-122.5218177717094,47.165870551452166]}},{"type":"Feature","properties":{"OBJECTID":2274,"NAME":"Parkland Lutheran School","ADDRESS":"120 123RD ST S","CITY":"TACOMA","ZIP":"98444","DISTRICT":"NOT APPLICABLE","DIST_NO":" ","TYPE":"PRIVATE","PHONE":"(253) 537-5492","WEBSITE":"https://parklandlutheran.org/","PRS_ID":92,"GRADE":"K-12","X_COORD":1159586.95479999,"Y_COORD":666445.3607},"geometry":{"type":"Point","coordinates":[-122.43245263274005,47.14468702074592]}},{"type":"Feature","properties":{"OBJECTID":2275,"NAME":"PCSC - Pierce County Skills Center","ADDRESS":"16117 CANYON RD E","CITY":"PUYALLUP","ZIP":"98375","DISTRICT":"BETHEL","DIST_NO":"403","TYPE":"OTHER","PHONE":"(253) 683-5950","WEBSITE":"https://www.bethelsd.org/Domain/4376","PRS_ID":431,"GRADE":"9-12","X_COORD":1178313.1776,"Y_COORD":653370.27240001},"geometry":{"type":"Point","coordinates":[-122.35598412651083,47.110081200003286]}},{"type":"Feature","properties":{"OBJECTID":2276,"NAME":"Peninsula High School","ADDRESS":"14105 PURDY DR NW","CITY":"GIG HARBOR","ZIP":"98332","DISTRICT":"PENINSULA","DIST_NO":"401","TYPE":"HIGH","PHONE":"(253) 530-4400","WEBSITE":"https://psd401.net/phs/","PRS_ID":65,"GRADE":"9-12","X_COORD":1114609.0106,"Y_COORD":756115.9929},"geometry":{"type":"Point","coordinates":[-122.62283247118974,47.38728113892601]}},{"type":"Feature","properties":{"OBJECTID":2277,"NAME":"Pierce College at JBLM","ADDRESS":"851 LINCOLN BLVD SW","CITY":"JBLM","ZIP":"98439","DISTRICT":"NOT APPLICABLE","DIST_NO":" ","TYPE":"COLLEGE","PHONE":"(253) 982-9900","WEBSITE":"https://www.pierce.ctc.edu/maps","PRS_ID":485,"GRADE":"Higher Education","X_COORD":1141562.6812,"Y_COORD":658554.6135},"geometry":{"type":"Point","coordinates":[-122.50405592473726,47.121826052790176]}},{"type":"Feature","properties":{"OBJECTID":2278,"NAME":"Pierce College Fort Steilacoom","ADDRESS":"9401 FARWEST DR SW","CITY":"LAKEWOOD","ZIP":"98498","DISTRICT":"NOT APPLICABLE","DIST_NO":" ","TYPE":"COLLEGE","PHONE":"(253) 964-6500","WEBSITE":"https://www.pierce.ctc.edu/","PRS_ID":247,"GRADE":"Higher Education","X_COORD":1125232.7094,"Y_COORD":677359.6154},"geometry":{"type":"Point","coordinates":[-122.57161265203828,47.172211101745326]}},{"type":"Feature","properties":{"OBJECTID":2279,"NAME":"Pierce College Puyallup","ADDRESS":"1601 39TH AVE SE","CITY":"PUYALLUP","ZIP":"98374","DISTRICT":"NOT APPLICABLE","DIST_NO":" ","TYPE":"COLLEGE","PHONE":"(253) 840-8400","WEBSITE":"https://www.pierce.ctc.edu/","PRS_ID":248,"GRADE":"Higher Education","X_COORD":1199233.03470001,"Y_COORD":670618.32340001},"geometry":{"type":"Point","coordinates":[-122.27354833557231,47.158678508766414]}},{"type":"Feature","properties":{"OBJECTID":2280,"NAME":"Pioneer Elementary School (2019-2020)","ADDRESS":"8502 SKANSIE AVE","CITY":"GIG HARBOR","ZIP":"98332","DISTRICT":"PENINSULA","DIST_NO":"401","TYPE":"ELEM","PHONE":"(253) 530-1120","WEBSITE":"https://psd401.net/pioneer-elementary-school/","PRS_ID":483,"GRADE":"K-6","X_COORD":1118241.361,"Y_COORD":737032.2227},"geometry":{"type":"Point","coordinates":[-122.6061179008748,47.335247939661194]}},{"type":"Feature","properties":{"OBJECTID":2281,"NAME":"Pioneer Middle School","ADDRESS":"1750 BOBS HOLLOW LANE","CITY":"DUPONT","ZIP":"98327","DISTRICT":"STEILACOOM","DIST_NO":"001","TYPE":"MID","PHONE":"(253) 583-7200","WEBSITE":"https://www.steilacoom.k12.wa.us/Domain/9","PRS_ID":134,"GRADE":"6-8","X_COORD":1105537.7209,"Y_COORD":651986.70100001},"geometry":{"type":"Point","coordinates":[-122.64799219321426,47.101225011780265]}},{"type":"Feature","properties":{"OBJECTID":2282,"NAME":"Pioneer Valley Elementary School","ADDRESS":"7315 EUSTIS HUNT RD","CITY":"SPANAWAY","ZIP":"98387","DISTRICT":"BETHEL","DIST_NO":"403","TYPE":"ELEM","PHONE":"(253) 683-8900","WEBSITE":"https://www.bethelsd.org/pves","PRS_ID":7,"GRADE":"PRE-6","X_COORD":1184799.99690001,"Y_COORD":638864.1749},"geometry":{"type":"Point","coordinates":[-122.3285895515795,47.07073437617132]}},{"type":"Feature","properties":{"OBJECTID":2283,"NAME":"Point Defiance Elementary","ADDRESS":"4330 N VISSCHER ST","CITY":"TACOMA","ZIP":"98407","DISTRICT":"TACOMA","DIST_NO":"010","TYPE":"ELEM","PHONE":"(253) 571-6900","WEBSITE":"https://www.tacomaschools.org/pd/Pages/default.aspx","PRS_ID":170,"GRADE":"K-5","X_COORD":1139543.41140001,"Y_COORD":719440.0051},"geometry":{"type":"Point","coordinates":[-122.51842219590176,47.28856044676687]}},{"type":"Feature","properties":{"OBJECTID":2284,"NAME":"Pope Elementary School","ADDRESS":"15102 122ND AVE E","CITY":"PUYALLUP","ZIP":"98374","DISTRICT":"PUYALLUP","DIST_NO":"003","TYPE":"ELEM","PHONE":"(253) 841-8755","WEBSITE":"https://pop.puyallup.k12.wa.us/","PRS_ID":113,"GRADE":"K-6","X_COORD":1200317.35690001,"Y_COORD":656129.9288},"geometry":{"type":"Point","coordinates":[-122.26788564999295,47.11903139529088]}},{"type":"Feature","properties":{"OBJECTID":2285,"NAME":"Ptarmigan Ridge Intermediate School","ADDRESS":"805 OLD PIONEER WAY NW","CITY":"ORTING","ZIP":"98360","DISTRICT":"ORTING","DIST_NO":"344","TYPE":"INTER","PHONE":"(360) 893-0595","WEBSITE":"https://www.ortingschools.org/domain/54","PRS_ID":310,"GRADE":"3-5","X_COORD":1212181.9307,"Y_COORD":650697.046},"geometry":{"type":"Point","coordinates":[-122.21976503596957,47.104858305271435]}},{"type":"Feature","properties":{"OBJECTID":2286,"NAME":"Puget Sound Christian School","ADDRESS":"1740 S 84TH ST","CITY":"TACOMA","ZIP":"98444","DISTRICT":"NOT APPLICABLE","DIST_NO":" ","TYPE":"PRIVATE","PHONE":"(253) 537-6870","WEBSITE":"http://www.pschristianschool.com","PRS_ID":94,"GRADE":"PRE","X_COORD":1153089.4347,"Y_COORD":679677.41590001},"geometry":{"type":"Point","coordinates":[-122.45987656900623,47.18051543952742]}},{"type":"Feature","properties":{"OBJECTID":2287,"NAME":"Purdy Elementary School","ADDRESS":"13815 62ND AVE NW","CITY":"GIG HARBOR","ZIP":"98332","DISTRICT":"PENINSULA","DIST_NO":"401","TYPE":"ELEM","PHONE":"(253) 530-4600","WEBSITE":"https://psd401.net/pes/","PRS_ID":62,"GRADE":"K-6","X_COORD":1115627.74860001,"Y_COORD":754813.3263},"geometry":{"type":"Point","coordinates":[-122.6185802950975,47.383786234912904]}},{"type":"Feature","properties":{"OBJECTID":2288,"NAME":"Puyallup Digital Learning","ADDRESS":"716 SOUTH HILL PARK DR, STE B","CITY":"PUYALLUP","ZIP":"98373","DISTRICT":"PUYALLUP","DIST_NO":"003","TYPE":"OTHER","PHONE":"(253) 841-8630","WEBSITE":"https://pdl.puyallup.k12.wa.us/cms/One.aspx","PRS_ID":464,"GRADE":"Higher Education","X_COORD":1192189.382,"Y_COORD":671289.49079999},"geometry":{"type":"Point","coordinates":[-122.30191551480796,47.160080545750155]}},{"type":"Feature","properties":{"OBJECTID":2289,"NAME":"Puyallup High School","ADDRESS":"105 7TH ST SW","CITY":"PUYALLUP","ZIP":"98371","DISTRICT":"PUYALLUP","DIST_NO":"003","TYPE":"HIGH","PHONE":"(253) 841-8711","WEBSITE":"https://phs.puyallup.k12.wa.us/","PRS_ID":290,"GRADE":"9-12","X_COORD":1192555.59819999,"Y_COORD":682838.91760001},"geometry":{"type":"Point","coordinates":[-122.30150405065454,47.191760688669774]}},{"type":"Feature","properties":{"OBJECTID":2290,"NAME":"Rainier Elementary School","ADDRESS":"2410 STRYKER AVE","CITY":"JBLM","ZIP":"98433","DISTRICT":"CLOVER PARK","DIST_NO":"400","TYPE":"ELEM","PHONE":"(253) 583-5220","WEBSITE":"https://rainier.cloverpark.k12.wa.us/","PRS_ID":460,"GRADE":"K-6","X_COORD":1116373.3486,"Y_COORD":645506.61139999},"geometry":{"type":"Point","coordinates":[-122.6038048981757,47.084264897493796]}},{"type":"Feature","properties":{"OBJECTID":2291,"NAME":"Ridgecrest Elementary School","ADDRESS":"12616 SHAW RD E","CITY":"PUYALLUP","ZIP":"98374","DISTRICT":"PUYALLUP","DIST_NO":"003","TYPE":"ELEM","PHONE":"(253) 841-8753","WEBSITE":"https://rid.puyallup.k12.wa.us/","PRS_ID":115,"GRADE":"K-6","X_COORD":1203087.3937,"Y_COORD":663953.60959999},"geometry":{"type":"Point","coordinates":[-122.25746219362631,47.14064655461835]}},{"type":"Feature","properties":{"OBJECTID":2292,"NAME":"Rocky Ridge Elementary School","ADDRESS":"6514 260TH ST E","CITY":"GRAHAM","ZIP":"98338","DISTRICT":"BETHEL","DIST_NO":"403","TYPE":"ELEM","PHONE":"(253) 683-5000","WEBSITE":"https://www.bethelsd.org/rres","PRS_ID":232,"GRADE":"K-6","X_COORD":1180134.7027,"Y_COORD":620285.3063},"geometry":{"type":"Point","coordinates":[-122.34556225907598,47.019509722771346]}},{"type":"Feature","properties":{"OBJECTID":2293,"NAME":"Rogers High School","ADDRESS":"12801 86TH AVE E","CITY":"PUYALLUP","ZIP":"98373","DISTRICT":"PUYALLUP","DIST_NO":"003","TYPE":"HIGH","PHONE":"(253) 841-8717","WEBSITE":"https://rhs.puyallup.k12.wa.us/","PRS_ID":125,"GRADE":"9-12","X_COORD":1189482.25319999,"Y_COORD":663448.3486},"geometry":{"type":"Point","coordinates":[-122.31207056265029,47.13841762604002]}},{"type":"Feature","properties":{"OBJECTID":2294,"NAME":"Roosevelt Elementary School","ADDRESS":"3550 E ROOSEVELT AVE","CITY":"TACOMA","ZIP":"98404","DISTRICT":"TACOMA","DIST_NO":"010","TYPE":"ELEM","PHONE":"(253) 571-4400","WEBSITE":"https://www.tacomaschools.org/roosevelt/Pages/default.aspx","PRS_ID":173,"GRADE":"K-5","X_COORD":1168435.0809,"Y_COORD":696629.50300001},"geometry":{"type":"Point","coordinates":[-122.39982721744498,47.228008481417746]}},{"type":"Feature","properties":{"OBJECTID":2295,"NAME":"Roy Elementary School","ADDRESS":"340 PETERSON ST S","CITY":"ROY","ZIP":"98580","DISTRICT":"BETHEL","DIST_NO":"403","TYPE":"ELEM","PHONE":"(253) 683-5100","WEBSITE":"https://www.bethelsd.org/res","PRS_ID":280,"GRADE":"K-6","X_COORD":1131026.7515,"Y_COORD":614848.5226},"geometry":{"type":"Point","coordinates":[-122.54181925735598,47.001289513350635]}},{"type":"Feature","properties":{"OBJECTID":2296,"NAME":"Saint Mary's Academy","ADDRESS":"757 138TH ST S","CITY":"TACOMA","ZIP":"98444","DISTRICT":"NOT APPLICABLE","DIST_NO":" ","TYPE":"PRIVATE","PHONE":"(253) 537-6281","WEBSITE":"https://community.plu.edu/~sanchemd/St%20Marys%20Academy.html","PRS_ID":421,"GRADE":"K-8","X_COORD":1156800.6602,"Y_COORD":661786.04279999},"geometry":{"type":"Point","coordinates":[-122.44318499162105,47.13172842734331]}},{"type":"Feature","properties":{"OBJECTID":2297,"NAME":"Saltar's Point Elementary","ADDRESS":"908 3RD ST","CITY":"STEILACOOM","ZIP":"98388","DISTRICT":"STEILACOOM","DIST_NO":"001","TYPE":"ELEM","PHONE":"(253) 983-2600","WEBSITE":"https://www.steilacoom.k12.wa.us/Domain/12","PRS_ID":217,"GRADE":"K-6","X_COORD":1115720.71969999,"Y_COORD":674331.0469},"geometry":{"type":"Point","coordinates":[-122.60951773768821,47.163219326824596]}},{"type":"Feature","properties":{"OBJECTID":2298,"NAME":"sami - Science and Math Institute","ADDRESS":"5502 FIVE MILE DR","CITY":"TACOMA","ZIP":"98407","DISTRICT":"TACOMA","DIST_NO":"010","TYPE":"HIGH","PHONE":"(253) 571-2300","WEBSITE":"https://www.tacomaschools.org/sami/Pages/default.aspx","PRS_ID":408,"GRADE":"9-12","X_COORD":1141513.69750001,"Y_COORD":724253.82250001},"geometry":{"type":"Point","coordinates":[-122.51098023872045,47.30189172497839]}},{"type":"Feature","properties":{"OBJECTID":2299,"NAME":"School of Urban Ministry - Tacoma","ADDRESS":"106 S 28TH ST","CITY":"TACOMA","ZIP":"98402","DISTRICT":"NOT APPLICABLE","DIST_NO":" ","TYPE":"COLLEGE","PHONE":"(253) 584-3778","WEBSITE":"https://schoolofurbanministry-tacoma.org/","PRS_ID":465,"GRADE":"Higher Education","X_COORD":1160124.6015,"Y_COORD":699691.752},"geometry":{"type":"Point","coordinates":[-122.4335675001228,47.235848097687125]}},{"type":"Feature","properties":{"OBJECTID":2300,"NAME":"Seabury School","ADDRESS":"1801 53RD ST NE","CITY":"TACOMA","ZIP":"98422","DISTRICT":"NOT APPLICABLE","DIST_NO":" ","TYPE":"PRIVATE","PHONE":"(253) 952-3111","WEBSITE":"https://www.seabury.org/","PRS_ID":101,"GRADE":"K-8","X_COORD":1163324.62899999,"Y_COORD":724837.6707},"geometry":{"type":"Point","coordinates":[-122.42315764341036,47.30498299948182]}},{"type":"Feature","properties":{"OBJECTID":2301,"NAME":"Seabury School","ADDRESS":"925 COURT C","CITY":"TACOMA","ZIP":"98402","DISTRICT":"NOT APPLICABLE","DIST_NO":" ","TYPE":"PRIVATE","PHONE":"(253) 604-0042","WEBSITE":"https://www.seabury.org/","PRS_ID":472,"GRADE":"K-8","X_COORD":1158503.8707,"Y_COORD":706480.06559999},"geometry":{"type":"Point","coordinates":[-122.44076191870109,47.254344653433186]}},{"type":"Feature","properties":{"OBJECTID":2302,"NAME":"Shaw Road Elementary School","ADDRESS":"1106 SHAW RD","CITY":"PUYALLUP","ZIP":"98372","DISTRICT":"PUYALLUP","DIST_NO":"003","TYPE":"ELEM","PHONE":"(253) 841-8675","WEBSITE":"https://sha.puyallup.k12.wa.us/","PRS_ID":117,"GRADE":"K-6","X_COORD":1203228.70640001,"Y_COORD":678900.6173},"geometry":{"type":"Point","coordinates":[-122.25823321040073,47.18162596448341]}},{"type":"Feature","properties":{"OBJECTID":2303,"NAME":"Sheridan Elementary","ADDRESS":"5317 MCKINLEY AVE","CITY":"TACOMA","ZIP":"98404","DISTRICT":"TACOMA","DIST_NO":"010","TYPE":"ELEM","PHONE":"(253) 571-5900","WEBSITE":"https://www.tacomaschools.org/sheridan/Pages/default.aspx","PRS_ID":175,"GRADE":"K-5","X_COORD":1163268.2599,"Y_COORD":689827.44949999},"geometry":{"type":"Point","coordinates":[-122.41995028606779,47.20902183406771]}},{"type":"Feature","properties":{"OBJECTID":2304,"NAME":"Sherman Elementary School","ADDRESS":"4415 N 38TH ST","CITY":"TACOMA","ZIP":"98407","DISTRICT":"TACOMA","DIST_NO":"010","TYPE":"ELEM","PHONE":"(253) 571-5488","WEBSITE":"https://www.tacomaschools.org/sherman/Pages/default.aspx","PRS_ID":176,"GRADE":"K-5","X_COORD":1144681.3395,"Y_COORD":717646.689},"geometry":{"type":"Point","coordinates":[-122.49754326310372,47.28400400143858]}},{"type":"Feature","properties":{"OBJECTID":2305,"NAME":"Shining Mountain Elementary School","ADDRESS":"21615 38TH AVE E","CITY":"SPANAWAY","ZIP":"98387","DISTRICT":"BETHEL","DIST_NO":"403","TYPE":"ELEM","PHONE":"(253) 683-5200","WEBSITE":"https://www.bethelsd.org/smes","PRS_ID":8,"GRADE":"PRE-6","X_COORD":1172551.68009999,"Y_COORD":635218.4586},"geometry":{"type":"Point","coordinates":[-122.3773809018018,47.059952309026706]}},{"type":"Feature","properties":{"OBJECTID":2306,"NAME":"Skyline Elementary School","ADDRESS":"2301 N MILDRED ST","CITY":"TACOMA","ZIP":"98406","DISTRICT":"TACOMA","DIST_NO":"010","TYPE":"ELEM","PHONE":"(253) 571-7800","WEBSITE":"https://www.tacomaschools.org/skyline/Pages/default.aspx","PRS_ID":177,"GRADE":"K-5","X_COORD":1137565.8176,"Y_COORD":712692.1003},"geometry":{"type":"Point","coordinates":[-122.52568981565086,47.269927290412284]}},{"type":"Feature","properties":{"OBJECTID":2307,"NAME":"Spanaway Elementary School","ADDRESS":"412 165TH ST S","CITY":"SPANAWAY","ZIP":"98387","DISTRICT":"BETHEL","DIST_NO":"403","TYPE":"ELEM","PHONE":"(253) 683-5300","WEBSITE":"https://www.bethelsd.org/ses","PRS_ID":436,"GRADE":"PRE-6","X_COORD":1157874.37639999,"Y_COORD":652787.147},"geometry":{"type":"Point","coordinates":[-122.43798429153698,47.10713524132026]}},{"type":"Feature","properties":{"OBJECTID":2308,"NAME":"Spanaway Lake High School","ADDRESS":"1305 168TH ST E","CITY":"SPANAWAY","ZIP":"98387","DISTRICT":"BETHEL","DIST_NO":"403","TYPE":"HIGH","PHONE":"(253) 683-5600","WEBSITE":"https://www.bethelsd.org/slhs","PRS_ID":12,"GRADE":"9-12","X_COORD":1164042.7482,"Y_COORD":652290.26459999},"geometry":{"type":"Point","coordinates":[-122.41317228770141,47.106186128941495]}},{"type":"Feature","properties":{"OBJECTID":2309,"NAME":"Spanaway Middle School","ADDRESS":"15701 B ST E","CITY":"TACOMA","ZIP":"98445","DISTRICT":"BETHEL","DIST_NO":"403","TYPE":"MID","PHONE":"(253) 683-5400","WEBSITE":"https://www.bethelsd.org/sms","PRS_ID":238,"GRADE":"7-9","X_COORD":1160504.3723,"Y_COORD":655484.1027},"geometry":{"type":"Point","coordinates":[-122.42769059149266,47.11470420899537]}},{"type":"Feature","properties":{"OBJECTID":2310,"NAME":"Spinning Elementary School","ADDRESS":"1306 E PIONEER","CITY":"PUYALLUP","ZIP":"98372","DISTRICT":"PUYALLUP","DIST_NO":"003","TYPE":"ELEM","PHONE":"(253) 841-8742","WEBSITE":"https://spi.puyallup.k12.wa.us/","PRS_ID":118,"GRADE":"K-6","X_COORD":1198682.118,"Y_COORD":681343.6427},"geometry":{"type":"Point","coordinates":[-122.27673329143306,47.18804308486784]}},{"type":"Feature","properties":{"OBJECTID":2311,"NAME":"St Charles Borromeo School","ADDRESS":"7112 S 12TH ST","CITY":"TACOMA","ZIP":"98465","DISTRICT":"NOT APPLICABLE","DIST_NO":" ","TYPE":"PRIVATE","PHONE":"(253) 564-5185","WEBSITE":"https://www.stcharlesb.org/","PRS_ID":97,"GRADE":"K-6","X_COORD":1135578.30419999,"Y_COORD":704948.11830001},"geometry":{"type":"Point","coordinates":[-122.53288896297772,47.248562845610635]}},{"type":"Feature","properties":{"OBJECTID":2312,"NAME":"St Frances Cabrini School","ADDRESS":"5621 108TH ST SW","CITY":"LAKEWOOD","ZIP":"98499","DISTRICT":"NOT APPLICABLE","DIST_NO":" ","TYPE":"PRIVATE","PHONE":"(253) 584-3852","WEBSITE":"https://www.cabrinischool.org/","PRS_ID":98,"GRADE":"K-6","X_COORD":1140050.75849999,"Y_COORD":672641.98280001},"geometry":{"type":"Point","coordinates":[-122.5115701458989,47.16033234036998]}},{"type":"Feature","properties":{"OBJECTID":2313,"NAME":"St Nicholas Catholic School","ADDRESS":"3555 EDWARDS DR","CITY":"GIG HARBOR","ZIP":"98335","DISTRICT":"NOT APPLICABLE","DIST_NO":" ","TYPE":"PRIVATE","PHONE":"(253) 858-7632","WEBSITE":"https://www.stnicholascs.org/","PRS_ID":339,"GRADE":"K-6","X_COORD":1123152.2098,"Y_COORD":734497.46600001},"geometry":{"type":"Point","coordinates":[-122.58604966946247,47.32865891143646]}},{"type":"Feature","properties":{"OBJECTID":2314,"NAME":"St Patrick Catholic School","ADDRESS":"1112 N G ST","CITY":"TACOMA","ZIP":"98403","DISTRICT":"NOT APPLICABLE","DIST_NO":" ","TYPE":"PRIVATE","PHONE":"(253) 272-2297","WEBSITE":"https://www.saintpats.org/school/","PRS_ID":99,"GRADE":"K-8","X_COORD":1152879.92990001,"Y_COORD":711585.94310001},"geometry":{"type":"Point","coordinates":[-122.4639132490922,47.26795728558996]}},{"type":"Feature","properties":{"OBJECTID":2315,"NAME":"Stadium High School","ADDRESS":"111 N E ST","CITY":"TACOMA","ZIP":"98403","DISTRICT":"TACOMA","DIST_NO":"010","TYPE":"HIGH","PHONE":"(253) 571-3100","WEBSITE":"https://www.tacomaschools.org/stadium/Pages/default.aspx","PRS_ID":188,"GRADE":"9-12","X_COORD":1156548.96870001,"Y_COORD":711013.0423},"geometry":{"type":"Point","coordinates":[-122.44908251684066,47.266636566928334]}},{"type":"Feature","properties":{"OBJECTID":2316,"NAME":"Stafford Elementary","ADDRESS":"1615 S 92ND ST\r\n","CITY":"TACOMA","ZIP":"98444","DISTRICT":"TACOMA","DIST_NO":"010","TYPE":"ELEM","PHONE":"(253) 571-4300","WEBSITE":"https://www.tacomaschools.org/stafford/Pages/default.aspx","PRS_ID":355,"GRADE":"K-5","X_COORD":1154007.0889,"Y_COORD":677426.0588},"geometry":{"type":"Point","coordinates":[-122.45596308840031,47.17440716479578]}},{"type":"Feature","properties":{"OBJECTID":2317,"NAME":"Stahl Junior High School","ADDRESS":"9610 168TH ST E","CITY":"PUYALLUP","ZIP":"98375","DISTRICT":"PUYALLUP","DIST_NO":"003","TYPE":"JRHIGH","PHONE":"(253) 840-8881","WEBSITE":"https://sjh.puyallup.k12.wa.us/","PRS_ID":132,"GRADE":"7-9","X_COORD":1192078.8065,"Y_COORD":649888.43629999},"geometry":{"type":"Point","coordinates":[-122.30039645805246,47.101411971652134]}},{"type":"Feature","properties":{"OBJECTID":2318,"NAME":"Stanley Elementary School","ADDRESS":"1712 S 17TH ST","CITY":"TACOMA","ZIP":"98405","DISTRICT":"TACOMA","DIST_NO":"010","TYPE":"ELEM","PHONE":"(253) 571-4500","WEBSITE":"https://www.tacomaschools.org/stanley/Pages/default.aspx","PRS_ID":178,"GRADE":"K-5","X_COORD":1153642.45389999,"Y_COORD":702946.81479999},"geometry":{"type":"Point","coordinates":[-122.45997832339573,47.24433110328305]}},{"type":"Feature","properties":{"OBJECTID":2319,"NAME":"Steilacoom High School","ADDRESS":"54 SENTINEL DR","CITY":"STEILACOOM","ZIP":"98388","DISTRICT":"STEILACOOM","DIST_NO":"001","TYPE":"HIGH","PHONE":"(253) 983-2300","WEBSITE":"https://www.steilacoom.k12.wa.us/Domain/8","PRS_ID":216,"GRADE":"9-12","X_COORD":1123897.0765,"Y_COORD":680020.34810001},"geometry":{"type":"Point","coordinates":[-122.57726260388934,47.1794073065874]}},{"type":"Feature","properties":{"OBJECTID":2320,"NAME":"Stewart Elementary School","ADDRESS":"426 4TH AVE NE","CITY":"PUYALLUP","ZIP":"98372","DISTRICT":"PUYALLUP","DIST_NO":"003","TYPE":"ELEM","PHONE":"(253) 841-8743","WEBSITE":"https://ste.puyallup.k12.wa.us/","PRS_ID":119,"GRADE":"K-6","X_COORD":1195754.8415,"Y_COORD":683372.82520001},"geometry":{"type":"Point","coordinates":[-122.28868833701065,47.19342373931153]}},{"type":"Feature","properties":{"OBJECTID":2321,"NAME":"Stewart Middle School","ADDRESS":"5010 PACIFIC AVE","CITY":"TACOMA","ZIP":"98408","DISTRICT":"TACOMA","DIST_NO":"010","TYPE":"MID","PHONE":"(253) 571-2200","WEBSITE":"https://www.tacomaschools.org/stewart/Pages/default.aspx","PRS_ID":198,"GRADE":"6-8","X_COORD":1159461.92470001,"Y_COORD":690601.6821},"geometry":{"type":"Point","coordinates":[-122.4353365241935,47.210888902808605]}},{"type":"Feature","properties":{"OBJECTID":2322,"NAME":"Stone Education Center","ADDRESS":"6242 COLORADO AVE","CITY":"JBLM","ZIP":"98433","DISTRICT":"NOT APPLICABLE","DIST_NO":" ","TYPE":"COLLEGE","PHONE":"(253) 967-7174","WEBSITE":"https://www.goarmyed.com/public/facility_pages/Joint_Base_Lewis_McChord_Education_Center/default.asp","PRS_ID":484,"GRADE":"Higher Education","X_COORD":1123482.8537,"Y_COORD":649318.89040001},"geometry":{"type":"Point","coordinates":[-122.57567926069538,47.095230179501]}},{"type":"Feature","properties":{"OBJECTID":2323,"NAME":"Sumner High School","ADDRESS":"1707 MAIN ST","CITY":"SUMNER","ZIP":"98390","DISTRICT":"SUMNER","DIST_NO":"320","TYPE":"HIGH","PHONE":"(253) 891-5500","WEBSITE":"https://www.sumnersd.org/shs","PRS_ID":142,"GRADE":"9-12","X_COORD":1210071.99879999,"Y_COORD":687046.4743},"geometry":{"type":"Point","coordinates":[-122.23143954318228,47.20436915688845]}},{"type":"Feature","properties":{"OBJECTID":2324,"NAME":"Sumner Middle School","ADDRESS":"1508 WILLOW ST","CITY":"SUMNER","ZIP":"98390","DISTRICT":"SUMNER","DIST_NO":"320","TYPE":"MID","PHONE":"(253) 891-5000","WEBSITE":"https://www.sumnersd.org/sms","PRS_ID":144,"GRADE":"6-8","X_COORD":1208937.3723,"Y_COORD":683283.0721},"geometry":{"type":"Point","coordinates":[-122.23566996833554,47.19398511829566]}},{"type":"Feature","properties":{"OBJECTID":2325,"NAME":"Sunrise Elementary School","ADDRESS":"2323 39TH AVE SE","CITY":"PUYALLUP","ZIP":"98374","DISTRICT":"PUYALLUP","DIST_NO":"003","TYPE":"ELEM","PHONE":"(253) 841-8744","WEBSITE":"https://sun.puyallup.k12.wa.us/","PRS_ID":120,"GRADE":"K-6","X_COORD":1201873.8601,"Y_COORD":669387.8874},"geometry":{"type":"Point","coordinates":[-122.26282529456137,47.15546810141584]}},{"type":"Feature","properties":{"OBJECTID":2326,"NAME":"Sunset Primary School","ADDRESS":"4523 97TH AVE W","CITY":"UNIVERSITY PLACE","ZIP":"98466","DISTRICT":"UNIVERSITY PLACE","DIST_NO":"083","TYPE":"PRIM","PHONE":"(253) 566-5640","WEBSITE":"https://sp.upsd83.org/","PRS_ID":204,"GRADE":"K-2","X_COORD":1127526.31370001,"Y_COORD":692919.42820001},"geometry":{"type":"Point","coordinates":[-122.5640309127818,47.215021896524654]}},{"type":"Feature","properties":{"OBJECTID":2327,"NAME":"Surprise Lake Middle School","ADDRESS":"2001 MILTON WAY","CITY":"MILTON","ZIP":"98354","DISTRICT":"FIFE","DIST_NO":"417","TYPE":"MID","PHONE":"(253) 517-1300","WEBSITE":"https://slms.fifeschools.com/","PRS_ID":43,"GRADE":"6-8","X_COORD":1191308.2405,"Y_COORD":703441.29080001},"geometry":{"type":"Point","coordinates":[-122.30841943675402,47.24815299858841]}},{"type":"Feature","properties":{"OBJECTID":2328,"NAME":"Tacoma Baptist Schools","ADDRESS":"2052 S 64TH ST","CITY":"TACOMA","ZIP":"98409","DISTRICT":"NOT APPLICABLE","DIST_NO":" ","TYPE":"PRIVATE","PHONE":"(253) 475-7226","WEBSITE":"https://www.southsoundchristian.org/","PRS_ID":100,"GRADE":"K-6","X_COORD":1151560.50210001,"Y_COORD":686218.7641},"geometry":{"type":"Point","coordinates":[-122.4666787078819,47.19834011517399]}},{"type":"Feature","properties":{"OBJECTID":2329,"NAME":"Tacoma Community College - Gig Harbor Campus","ADDRESS":"3993 HUNT ST NW","CITY":"GIG HARBOR","ZIP":"98335","DISTRICT":"NOT APPLICABLE","DIST_NO":" ","TYPE":"COLLEGE","PHONE":"(253) 566-5000","WEBSITE":"https://www.tacomacc.edu/about/","PRS_ID":246,"GRADE":"Higher Education","X_COORD":1121791.4446,"Y_COORD":730169.1798},"geometry":{"type":"Point","coordinates":[-122.591072218799,47.31669794314143]}},{"type":"Feature","properties":{"OBJECTID":2330,"NAME":"Tacoma Community College - Tacoma Campus","ADDRESS":"6501 S 19TH ST","CITY":"TACOMA","ZIP":"98466","DISTRICT":"NOT APPLICABLE","DIST_NO":" ","TYPE":"COLLEGE","PHONE":"(253) 566-5000","WEBSITE":"https://www.tacomacc.edu/about/","PRS_ID":245,"GRADE":"Higher Education","X_COORD":1138433.3381,"Y_COORD":704121.84110001},"geometry":{"type":"Point","coordinates":[-122.52131207972069,47.24649936217317]}},{"type":"Feature","properties":{"OBJECTID":2331,"NAME":"Tacoma School of the Arts - Broadway","ADDRESS":"1117 BROADWAY","CITY":"TACOMA","ZIP":"98402","DISTRICT":"TACOMA","DIST_NO":"010","TYPE":"HIGH","PHONE":"(253) 571-7900","WEBSITE":"https://www.tacomaschools.org/sota/Pages/default.aspx","PRS_ID":359,"GRADE":"9-12","X_COORD":1158783.62720001,"Y_COORD":705800.9631},"geometry":{"type":"Point","coordinates":[-122.43956849835955,47.2525022151971]}},{"type":"Feature","properties":{"OBJECTID":2332,"NAME":"Tacoma School of the Arts - Main Office","ADDRESS":"302 S 9TH ST","CITY":"TACOMA","ZIP":"98402","DISTRICT":"TACOMA","DIST_NO":"010","TYPE":"HIGH","PHONE":"(253) 571-7900","WEBSITE":"https://www.tacomaschools.org/sota/Pages/default.aspx","PRS_ID":359,"GRADE":"9-12","X_COORD":1158465.0703,"Y_COORD":706675.8813},"geometry":{"type":"Point","coordinates":[-122.4409375139225,47.25487873347542]}},{"type":"Feature","properties":{"OBJECTID":2333,"NAME":"Tacoma School of the Arts - Pacific Ave","ADDRESS":"1950 PACIFIC AVE","CITY":"TACOMA","ZIP":"98402","DISTRICT":"TACOMA","DIST_NO":"010","TYPE":"HIGH","PHONE":"(253) 571-7900","WEBSITE":"https://www.tacomaschools.org/sota/Pages/default.aspx","PRS_ID":362,"GRADE":"9-12","X_COORD":1159393.5397,"Y_COORD":702417.6402},"geometry":{"type":"Point","coordinates":[-122.43677884351712,47.24327016902339]}},{"type":"Feature","properties":{"OBJECTID":2334,"NAME":"Tacoma School of the Arts - Ted Brown Extention","ADDRESS":"1124 BROADWAY","CITY":"TACOMA","ZIP":"98402","DISTRICT":"TACOMA","DIST_NO":"010","TYPE":"HIGH","PHONE":"(253) 571-7900","WEBSITE":"https://www.tacomaschools.org/sota/Pages/default.aspx","PRS_ID":481,"GRADE":"9-12","X_COORD":1158603.4048,"Y_COORD":705713.3714},"geometry":{"type":"Point","coordinates":[-122.44028529812238,47.25224999025087]}},{"type":"Feature","properties":{"OBJECTID":2335,"NAME":"Tehaleh Heights Elementary School","ADDRESS":"17520 BERKELEY PKWY E","CITY":"BONNEY LAKE","ZIP":"98391","DISTRICT":"SUMNER","DIST_NO":"320","TYPE":"ELEM","PHONE":"(253) 891-6530","WEBSITE":"https://www.sumnersd.org/the","PRS_ID":479,"GRADE":"K-6","X_COORD":1218002.7569,"Y_COORD":658834.46780001},"geometry":{"type":"Point","coordinates":[-122.19709922238144,47.127509839176994]}},{"type":"Feature","properties":{"OBJECTID":2336,"NAME":"Thompson Elementary","ADDRESS":"303 159TH ST E","CITY":"TACOMA","ZIP":"98445","DISTRICT":"BETHEL","DIST_NO":"403","TYPE":"ELEM","PHONE":"(253) 683-5800","WEBSITE":"https://www.bethelsd.org/tes","PRS_ID":237,"GRADE":"PRE-6","X_COORD":1160774.66140001,"Y_COORD":654918.7509},"geometry":{"type":"Point","coordinates":[-122.42654988283302,47.113172697300264]}},{"type":"Feature","properties":{"OBJECTID":2337,"NAME":"Tillicum Elementary School","ADDRESS":"8514 MAPLE ST SW","CITY":"LAKEWOOD","ZIP":"98498","DISTRICT":"CLOVER PARK","DIST_NO":"400","TYPE":"ELEM","PHONE":"(253) 583-5370","WEBSITE":"https://tillicum.cloverpark.k12.wa.us/","PRS_ID":28,"GRADE":"K-6","X_COORD":1129240.517,"Y_COORD":659864.2552},"geometry":{"type":"Point","coordinates":[-122.55367285218816,47.12454670887886]}},{"type":"Feature","properties":{"OBJECTID":2338,"NAME":"Trinity Lutheran School","ADDRESS":"12115 PARK AVE S","CITY":"TACOMA","ZIP":"98444","DISTRICT":"NOT APPLICABLE","DIST_NO":" ","TYPE":"PRIVATE","PHONE":"(253) 537-0201","WEBSITE":"http://trinitylutheranparkland.org/","PRS_ID":378,"GRADE":"K-6","X_COORD":1158134.3142,"Y_COORD":667416.0407},"geometry":{"type":"Point","coordinates":[-122.43838429294533,47.14724987766595]}},{"type":"Feature","properties":{"OBJECTID":2339,"NAME":"Truman Middle School","ADDRESS":"5801 N 35TH ST","CITY":"TACOMA","ZIP":"98407","DISTRICT":"TACOMA","DIST_NO":"010","TYPE":"MID","PHONE":"(253) 571-5600","WEBSITE":"https://www.tacomaschools.org/truman/Pages/default.aspx","PRS_ID":199,"GRADE":"6-8","X_COORD":1140715.906,"Y_COORD":716557.5739},"geometry":{"type":"Point","coordinates":[-122.51340288999347,47.28074263168015]}},{"type":"Feature","properties":{"OBJECTID":2340,"NAME":"Tyee Park Elementary School","ADDRESS":"11920 SEMINOLE RD SW","CITY":"LAKEWOOD","ZIP":"98499","DISTRICT":"CLOVER PARK","DIST_NO":"400","TYPE":"ELEM","PHONE":"(253) 583-5380","WEBSITE":"https://tyeepark.cloverpark.k12.wa.us/","PRS_ID":29,"GRADE":"K-6","X_COORD":1140760.2022,"Y_COORD":668424.7148},"geometry":{"type":"Point","coordinates":[-122.50828769626948,47.14882293431514]}},{"type":"Feature","properties":{"OBJECTID":2341,"NAME":"University Of Puget Sound","ADDRESS":"1500 N WARNER ST","CITY":"TACOMA","ZIP":"98416","DISTRICT":"NOT APPLICABLE","DIST_NO":" ","TYPE":"UNIVERSITY","PHONE":"(253) 879-3100","WEBSITE":"https://www.pugetsound.edu/","PRS_ID":252,"GRADE":"Higher Education","X_COORD":1148566.373,"Y_COORD":709469.9368},"geometry":{"type":"Point","coordinates":[-122.48106796231127,47.261862050246]}},{"type":"Feature","properties":{"OBJECTID":2342,"NAME":"University of Washington - Tacoma ( UWT )","ADDRESS":"1900 COMMERCE ST","CITY":"TACOMA","ZIP":"98402","DISTRICT":"NOT APPLICABLE","DIST_NO":" ","TYPE":"UNIVERSITY","PHONE":"(253) 692-4400","WEBSITE":"http://www.tacoma.uw.edu/","PRS_ID":243,"GRADE":"Higher Education","X_COORD":1159036.5583,"Y_COORD":703074.0025},"geometry":{"type":"Point","coordinates":[-122.43828053531993,47.24504511360829]}},{"type":"Feature","properties":{"OBJECTID":2343,"NAME":"University Place Primary School","ADDRESS":"2708 GRANDVIEW DR W","CITY":"UNIVERSITY PLACE","ZIP":"98466","DISTRICT":"UNIVERSITY PLACE","DIST_NO":"083","TYPE":"PRIM","PHONE":"(253) 566-5620","WEBSITE":"https://upp.upsd83.org/","PRS_ID":205,"GRADE":"K-2","X_COORD":1130777.86839999,"Y_COORD":699900.42110001},"geometry":{"type":"Point","coordinates":[-122.55168214699457,47.23438763331468]}},{"type":"Feature","properties":{"OBJECTID":2344,"NAME":"Vaughn Elementary School","ADDRESS":"17521 HALL RD NW","CITY":"VAUGHN","ZIP":"98394","DISTRICT":"PENINSULA","DIST_NO":"401","TYPE":"ELEM","PHONE":"(253) 530-4700","WEBSITE":"https://psd401.net/ves/","PRS_ID":63,"GRADE":"K-6","X_COORD":1077464.96269999,"Y_COORD":741481.2994},"geometry":{"type":"Point","coordinates":[-122.77101250358164,47.34433925072618]}},{"type":"Feature","properties":{"OBJECTID":2345,"NAME":"Victor Falls Elementary School","ADDRESS":"11401 188TH AVE CT E","CITY":"BONNEY LAKE","ZIP":"98391","DISTRICT":"SUMNER","DIST_NO":"320","TYPE":"ELEM","PHONE":"(253) 891-4700","WEBSITE":"https://www.sumnersd.org/vfe","PRS_ID":141,"GRADE":"K-6","X_COORD":1222749.0724,"Y_COORD":668383.23199999},"geometry":{"type":"Point","coordinates":[-122.17885253157398,47.1539628159536]}},{"type":"Feature","properties":{"OBJECTID":2346,"NAME":"Visitation Catholic STEM Academy","ADDRESS":"3306 S 58TH ST","CITY":"TACOMA","ZIP":"98409","DISTRICT":"NOT APPLICABLE","DIST_NO":" ","TYPE":"PRIVATE","PHONE":"(253) 474-6424","WEBSITE":"http://visitationstemacademy.org/","PRS_ID":102,"GRADE":"K-6","X_COORD":1148271.1337,"Y_COORD":688304.2727},"geometry":{"type":"Point","coordinates":[-122.4801169459163,47.20383057875248]}},{"type":"Feature","properties":{"OBJECTID":2347,"NAME":"Voyager Elementary School","ADDRESS":"5615 KOPACHUCK DR NW","CITY":"GIG HARBOR","ZIP":"98335","DISTRICT":"PENINSULA","DIST_NO":"401","TYPE":"ELEM","PHONE":"(253) 530-4800","WEBSITE":"https://psd401.net/vge/","PRS_ID":218,"GRADE":"K-6","X_COORD":1100176.1384,"Y_COORD":728200.5205},"geometry":{"type":"Point","coordinates":[-122.67796157715374,47.309699180969965]}},{"type":"Feature","properties":{"OBJECTID":2348,"NAME":"Wainwright Intermediate School","ADDRESS":"130 ALAMEDA AVE","CITY":"FIRCREST","ZIP":"98466","DISTRICT":"TACOMA","DIST_NO":"010","TYPE":"MID","PHONE":"(253) 571-2100","WEBSITE":"https://www.tacomaschools.org/whittier/Pages/default.aspx","PRS_ID":475,"GRADE":"6-8","X_COORD":1139347.19239999,"Y_COORD":702168.7886},"geometry":{"type":"Point","coordinates":[-122.51743281324362,47.241210634522346]}},{"type":"Feature","properties":{"OBJECTID":2349,"NAME":"Walker High School","ADDRESS":"5715 MILWAUKEE AVE E","CITY":"PUYALLUP","ZIP":"98372","DISTRICT":"PUYALLUP","DIST_NO":"003","TYPE":"HIGH","PHONE":"(253) 841-8781","WEBSITE":"https://whs.puyallup.k12.wa.us/","PRS_ID":260,"GRADE":"9-12","X_COORD":1197437.5414,"Y_COORD":687658.3345},"geometry":{"type":"Point","coordinates":[-122.2823113113952,47.20527478612574]}},{"type":"Feature","properties":{"OBJECTID":2350,"NAME":"Waller Road Elementary School","ADDRESS":"6312 WALLER RD E","CITY":"TACOMA","ZIP":"98443","DISTRICT":"PUYALLUP","DIST_NO":"003","TYPE":"ELEM","PHONE":"(253) 841-8745","WEBSITE":"https://wal.puyallup.k12.wa.us/","PRS_ID":121,"GRADE":"K-6","X_COORD":1170496.14470001,"Y_COORD":686232.34810001},"geometry":{"type":"Point","coordinates":[-122.39053128543176,47.19964661339463]}},{"type":"Feature","properties":{"OBJECTID":2351,"NAME":"Washington Elementary School","ADDRESS":"2615 N ADAMS ST","CITY":"TACOMA","ZIP":"98407","DISTRICT":"TACOMA","DIST_NO":"010","TYPE":"ELEM","PHONE":"(253) 571-5700","WEBSITE":"https://www.tacomaschools.org/washington/Pages/default.aspx","PRS_ID":182,"GRADE":"K-5","X_COORD":1147317.1533,"Y_COORD":713032.86049999},"geometry":{"type":"Point","coordinates":[-122.4864587652951,47.27154109880221]}},{"type":"Feature","properties":{"OBJECTID":2352,"NAME":"Washington High School","ADDRESS":"12420 AINSWORTH AVE S","CITY":"TACOMA","ZIP":"98444","DISTRICT":"FRANKLIN PIERCE","DIST_NO":"402","TYPE":"HIGH","PHONE":"(253) 298-4700","WEBSITE":"http://washington.fpschools.org/","PRS_ID":53,"GRADE":"9-12","X_COORD":1153835.9744,"Y_COORD":666221.14910001},"geometry":{"type":"Point","coordinates":[-122.45553404849048,47.143683897191096]}},{"type":"Feature","properties":{"OBJECTID":2353,"NAME":"Weyerhaeuser Elementary School","ADDRESS":"6105 365TH ST E","CITY":"EATONVILLE","ZIP":"98328","DISTRICT":"EATONVILLE","DIST_NO":"404","TYPE":"ELEM","PHONE":"(360) 879-1650","WEBSITE":"https://www.eatonville.wednet.edu/wes","PRS_ID":234,"GRADE":"K-6","X_COORD":1178273.7307,"Y_COORD":585455.6919},"geometry":{"type":"Point","coordinates":[-122.34974690399523,46.92391650452268]}},{"type":"Feature","properties":{"OBJECTID":2354,"NAME":"White River Early Learning Center","ADDRESS":"27515 120TH ST E","CITY":"BUCKLEY","ZIP":"98321","DISTRICT":"WHITE RIVER","DIST_NO":"416","TYPE":"HIGH","PHONE":"(360) 829-5830","WEBSITE":"https://elc.whiteriver.wednet.edu/","PRS_ID":293,"GRADE":"Intermediate","X_COORD":1251510.70730001,"Y_COORD":666556.1955},"geometry":{"type":"Point","coordinates":[-122.06312841847188,47.1505750594402]}},{"type":"Feature","properties":{"OBJECTID":2355,"NAME":"White River High School","ADDRESS":"26928 120TH ST E","CITY":"BUCKLEY","ZIP":"98321","DISTRICT":"WHITE RIVER","DIST_NO":"416","TYPE":"HIGH","PHONE":"(360) 829-3352","WEBSITE":"http://wrhs.whiteriver.wednet.edu/","PRS_ID":324,"GRADE":"9-12","X_COORD":1248916.45640001,"Y_COORD":664714.3457},"geometry":{"type":"Point","coordinates":[-122.0734050736108,47.14538473188074]}},{"type":"Feature","properties":{"OBJECTID":2356,"NAME":"Whitman Elementary School","ADDRESS":"1120 S 39TH ST","CITY":"TACOMA","ZIP":"98418","DISTRICT":"TACOMA","DIST_NO":"010","TYPE":"ELEM","PHONE":"(253) 571-7272","WEBSITE":"https://www.tacomaschools.org/whitman/Pages/default.aspx","PRS_ID":183,"GRADE":"K-5","X_COORD":1156093.5548,"Y_COORD":694510.5464},"geometry":{"type":"Point","coordinates":[-122.44927380094977,47.221375183298996]}},{"type":"Feature","properties":{"OBJECTID":2357,"NAME":"Whittier Elementary","ADDRESS":"777 ELM TREE LN","CITY":"FIRCREST","ZIP":"98466","DISTRICT":"TACOMA","DIST_NO":"010","TYPE":"ELEM","PHONE":"(253) 571-7500","WEBSITE":"https://www.tacomaschools.org/whittier/Pages/default.aspx","PRS_ID":184,"GRADE":"K-5","X_COORD":1139986.2639,"Y_COORD":697626.23100001},"geometry":{"type":"Point","coordinates":[-122.51439388422556,47.22880525457093]}},{"type":"Feature","properties":{"OBJECTID":2358,"NAME":"Wildwood Elementary School","ADDRESS":"1601 26TH AVE SE","CITY":"PUYALLUP","ZIP":"98374","DISTRICT":"PUYALLUP","DIST_NO":"003","TYPE":"ELEM","PHONE":"(253) 841-8746","WEBSITE":"https://wil.puyallup.k12.wa.us/","PRS_ID":123,"GRADE":"K-6","X_COORD":1199331.2855,"Y_COORD":673643.067},"geometry":{"type":"Point","coordinates":[-122.27342684251653,47.16697555358891]}},{"type":"Feature","properties":{"OBJECTID":2359,"NAME":"Wilkeson Elementary School","ADDRESS":"640 RAILROAD AVE","CITY":"WILKESON","ZIP":"98396","DISTRICT":"WHITE RIVER","DIST_NO":"416","TYPE":"ELEM","PHONE":"(360) 829-3357","WEBSITE":"http://www.wilkeson.whiteriver.wednet.edu/","PRS_ID":212,"GRADE":"K-6","X_COORD":1256116.54899999,"Y_COORD":648465.45829999},"geometry":{"type":"Point","coordinates":[-122.04319852508145,47.10123244635324]}},{"type":"Feature","properties":{"OBJECTID":2360,"NAME":"Willie Stewart Academy","ADDRESS":"1818 TACOMA AVE S","CITY":"TACOMA","ZIP":"98402","DISTRICT":"TACOMA","DIST_NO":"010","TYPE":"HIGH","PHONE":"(253) 571-3270","WEBSITE":"https://www.tacomaschools.org/schools/wsa/Pages/default.aspx","PRS_ID":361,"GRADE":"9-12","X_COORD":1157840.09999999,"Y_COORD":703012.11849999},"geometry":{"type":"Point","coordinates":[-122.44308999953996,47.24479479960614]}},{"type":"Feature","properties":{"OBJECTID":2361,"NAME":"Wilson High School","ADDRESS":"1202 N ORCHARD ST","CITY":"TACOMA","ZIP":"98406","DISTRICT":"TACOMA","DIST_NO":"010","TYPE":"HIGH","PHONE":"(253) 571-6000","WEBSITE":"https://www.tacomaschools.org/wilson/Pages/default.aspx","PRS_ID":189,"GRADE":"9-12","X_COORD":1141563.8202,"Y_COORD":709448.97040001},"geometry":{"type":"Point","coordinates":[-122.5092584853584,47.26131901680105]}},{"type":"Feature","properties":{"OBJECTID":2362,"NAME":"Woodbrook Middle School","ADDRESS":"14920 SPRING ST SW","CITY":"LAKEWOOD","ZIP":"98439","DISTRICT":"CLOVER PARK","DIST_NO":"400","TYPE":"MID","PHONE":"(253) 583-5460","WEBSITE":"https://woodbrook.cloverpark.k12.wa.us/","PRS_ID":35,"GRADE":"6-8","X_COORD":1132770.5643,"Y_COORD":659191.7564},"geometry":{"type":"Point","coordinates":[-122.53942723185881,47.122954577691694]}},{"type":"Feature","properties":{"OBJECTID":2363,"NAME":"Woodland Elementary School","ADDRESS":"7707 112TH ST E","CITY":"PUYALLUP","ZIP":"98373","DISTRICT":"PUYALLUP","DIST_NO":"003","TYPE":"ELEM","PHONE":"(253) 841-8747","WEBSITE":"https://woo.puyallup.k12.wa.us/","PRS_ID":124,"GRADE":"K-6","X_COORD":1186117.2992,"Y_COORD":669826.1522},"geometry":{"type":"Point","coordinates":[-122.32618101421511,47.15568664535444]}},{"type":"Feature","properties":{"OBJECTID":2364,"NAME":"Zeiger Elementary School","ADDRESS":"13008 94TH AVE E","CITY":"PUYALLUP","ZIP":"98373","DISTRICT":"PUYALLUP","DIST_NO":"003","TYPE":"ELEM","PHONE":"(253) 841-8663","WEBSITE":"https://zei.puyallup.k12.wa.us/","PRS_ID":277,"GRADE":"K-6","X_COORD":1190756.90979999,"Y_COORD":663240.773},"geometry":{"type":"Point","coordinates":[-122.30693107069338,47.13792881768726]}}]}